[
  {
    "name": "London", 
    "lat": "51.5072", 
    "lng": "-0.1275" 
  }, 
  {
    "name": "Birmingham", 
    "lat": "52.4800", 
    "lng": "-1.9025" 
  }, 
  {
    "name": "Manchester", 
    "lat": "53.4794", 
    "lng": "-2.2453" 
  }, 
  {
    "name": "Leeds", 
    "lat": "53.7997", 
    "lng": "-1.5492" 
  }, 
  {
    "name": "Newcastle", 
    "lat": "55.0077", 
    "lng": "-1.6578" 
  }, 
  {
    "name": "Birstall", 
    "lat": "52.6736", 
    "lng": "-1.1200" 
  }, 
  {
    "name": "Glasgow", 
    "lat": "55.8609", 
    "lng": "-4.2514" 
  }, 
  {
    "name": "Liverpool", 
    "lat": "53.4000", 
    "lng": "-2.9833" 
  }, 
  {
    "name": "Portsmouth", 
    "lat": "50.8058", 
    "lng": "-1.0872" 
  }, 
  {
    "name": "Southampton", 
    "lat": "50.9000", 
    "lng": "-1.4000" 
  }, 
  {
    "name": "Nottingham", 
    "lat": "52.9500", 
    "lng": "-1.1500" 
  }, 
  {
    "name": "Bristol", 
    "lat": "51.4500", 
    "lng": "-2.5833" 
  }, 
  {
    "name": "Sheffield", 
    "lat": "53.3833", 
    "lng": "-1.4667" 
  }, 
  {
    "name": "Kingston upon Hull", 
    "lat": "53.7444", 
    "lng": "-0.3325" 
  }, 
  {
    "name": "Leicester", 
    "lat": "52.6333", 
    "lng": "-1.1333" 
  }, 
  {
    "name": "Edinburgh", 
    "lat": "55.9530", 
    "lng": "-3.1890" 
  }, 
  {
    "name": "Caerdydd", 
    "lat": "51.4833", 
    "lng": "-3.1833" 
  }, 
  {
    "name": "Stoke-on-Trent", 
    "lat": "53.0000", 
    "lng": "-2.1833" 
  }, 
  {
    "name": "Coventry", 
    "lat": "52.4081", 
    "lng": "-1.5106" 
  }, 
  {
    "name": "Reading", 
    "lat": "51.4542", 
    "lng": "-0.9731" 
  }, 
  {
    "name": "Belfast", 
    "lat": "54.5964", 
    "lng": "-5.9300" 
  }, 
  {
    "name": "Derby", 
    "lat": "52.9167", 
    "lng": "-1.4667" 
  }, 
  {
    "name": "Plymouth", 
    "lat": "50.3714", 
    "lng": "-4.1422" 
  }, 
  {
    "name": "Wolverhampton", 
    "lat": "52.5833", 
    "lng": "-2.1333" 
  }, 
  {
    "name": "Abertawe", 
    "lat": "51.6167", 
    "lng": "-3.9500" 
  }, 
  {
    "name": "Milton Keynes", 
    "lat": "52.0400", 
    "lng": "-0.7600" 
  }, 
  {
    "name": "Aberdeen", 
    "lat": "57.1500", 
    "lng": "-2.1100" 
  }, 
  {
    "name": "Norwich", 
    "lat": "52.6300", 
    "lng": "1.2970" 
  }, 
  {
    "name": "Luton", 
    "lat": "51.8783", 
    "lng": "-0.4147" 
  }, 
  {
    "name": "Islington", 
    "lat": "51.5440", 
    "lng": "-0.1027" 
  }, 
  {
    "name": "Swindon", 
    "lat": "51.5600", 
    "lng": "-1.7800" 
  }, 
  {
    "name": "Croydon", 
    "lat": "51.3727", 
    "lng": "-0.1099" 
  }, 
  {
    "name": "Basildon", 
    "lat": "51.5761", 
    "lng": "0.4886" 
  }, 
  {
    "name": "Bournemouth", 
    "lat": "50.7200", 
    "lng": "-1.8800" 
  }, 
  {
    "name": "Worthing", 
    "lat": "50.8147", 
    "lng": "-0.3714" 
  }, 
  {
    "name": "Ipswich", 
    "lat": "52.0594", 
    "lng": "1.1556" 
  }, 
  {
    "name": "Middlesbrough", 
    "lat": "54.5767", 
    "lng": "-1.2355" 
  }, 
  {
    "name": "Sunderland", 
    "lat": "54.9061", 
    "lng": "-1.3811" 
  }, 
  {
    "name": "Ilford", 
    "lat": "51.5588", 
    "lng": "0.0855" 
  }, 
  {
    "name": "Warrington", 
    "lat": "53.3917", 
    "lng": "-2.5972" 
  }, 
  {
    "name": "Slough", 
    "lat": "51.5100", 
    "lng": "-0.5900" 
  }, 
  {
    "name": "Huddersfield", 
    "lat": "53.6450", 
    "lng": "-1.7798" 
  }, 
  {
    "name": "Oxford", 
    "lat": "51.7519", 
    "lng": "-1.2578" 
  }, 
  {
    "name": "York", 
    "lat": "53.9583", 
    "lng": "-1.0803" 
  }, 
  {
    "name": "Poole", 
    "lat": "50.7167", 
    "lng": "-1.9833" 
  }, 
  {
    "name": "Harrow", 
    "lat": "51.5836", 
    "lng": "-0.3464" 
  }, 
  {
    "name": "Dundee", 
    "lat": "56.4620", 
    "lng": "-2.9707" 
  }, 
  {
    "name": "Saint Albans", 
    "lat": "51.7550", 
    "lng": "-0.3360" 
  }, 
  {
    "name": "Telford", 
    "lat": "52.6766", 
    "lng": "-2.4469" 
  }, 
  {
    "name": "Blackpool", 
    "lat": "53.8142", 
    "lng": "-3.0503" 
  }, 
  {
    "name": "Brighton", 
    "lat": "50.8429", 
    "lng": "-0.1313" 
  }, 
  {
    "name": "Sale", 
    "lat": "53.4240", 
    "lng": "-2.3220" 
  }, 
  {
    "name": "Enfield", 
    "lat": "51.6522", 
    "lng": "-0.0808" 
  }, 
  {
    "name": "Tottenham", 
    "lat": "51.5880", 
    "lng": "-0.0720" 
  }, 
  {
    "name": "Bolton", 
    "lat": "53.5780", 
    "lng": "-2.4290" 
  }, 
  {
    "name": "Newport", 
    "lat": "51.5833", 
    "lng": "-3.0000" 
  }, 
  {
    "name": "High Wycombe", 
    "lat": "51.6287", 
    "lng": "-0.7482" 
  }, 
  {
    "name": "Exeter", 
    "lat": "50.7167", 
    "lng": "-3.5333" 
  }, 
  {
    "name": "Solihull", 
    "lat": "52.4130", 
    "lng": "-1.7780" 
  }, 
  {
    "name": "Romford", 
    "lat": "51.5768", 
    "lng": "0.1801" 
  }, 
  {
    "name": "Preston", 
    "lat": "53.7590", 
    "lng": "-2.6990" 
  }, 
  {
    "name": "Gateshead", 
    "lat": "54.9500", 
    "lng": "-1.6000" 
  }, 
  {
    "name": "Blackburn", 
    "lat": "53.7480", 
    "lng": "-2.4820" 
  }, 
  {
    "name": "Cheltenham", 
    "lat": "51.9000", 
    "lng": "-2.0667" 
  }, 
  {
    "name": "Basingstoke", 
    "lat": "51.2667", 
    "lng": "-1.0876" 
  }, 
  {
    "name": "Maidstone", 
    "lat": "51.2720", 
    "lng": "0.5290" 
  }, 
  {
    "name": "Colchester", 
    "lat": "51.8917", 
    "lng": "0.9030" 
  }, 
  {
    "name": "Chelmsford", 
    "lat": "51.7361", 
    "lng": "0.4798" 
  }, 
  {
    "name": "Wythenshawe", 
    "lat": "53.3920", 
    "lng": "-2.2640" 
  }, 
  {
    "name": "Doncaster", 
    "lat": "53.5150", 
    "lng": "-1.1330" 
  }, 
  {
    "name": "Rotherham", 
    "lat": "53.4300", 
    "lng": "-1.3570" 
  }, 
  {
    "name": "Walthamstow", 
    "lat": "51.5900", 
    "lng": "-0.0000" 
  }, 
  {
    "name": "Rochdale", 
    "lat": "53.6136", 
    "lng": "-2.1610" 
  }, 
  {
    "name": "Bedford", 
    "lat": "52.1350", 
    "lng": "-0.4700" 
  }, 
  {
    "name": "Crawley", 
    "lat": "51.1092", 
    "lng": "-0.1872" 
  }, 
  {
    "name": "Mansfield", 
    "lat": "53.1500", 
    "lng": "-1.2000" 
  }, 
  {
    "name": "Dagenham", 
    "lat": "51.5397", 
    "lng": "0.1422" 
  }, 
  {
    "name": "Stockport", 
    "lat": "53.4083", 
    "lng": "-2.1494" 
  }, 
  {
    "name": "Darlington", 
    "lat": "54.5270", 
    "lng": "-1.5526" 
  }, 
  {
    "name": "Fyfield", 
    "lat": "51.7390", 
    "lng": "0.2722" 
  }, 
  {
    "name": "Gillingham", 
    "lat": "51.3850", 
    "lng": "0.5500" 
  }, 
  {
    "name": "Salford", 
    "lat": "53.4830", 
    "lng": "-2.2931" 
  }, 
  {
    "name": "Eastbourne", 
    "lat": "50.7700", 
    "lng": "0.2800" 
  }, 
  {
    "name": "Wigan", 
    "lat": "53.5448", 
    "lng": "-2.6318" 
  }, 
  {
    "name": "Hounslow", 
    "lat": "51.4668", 
    "lng": "-0.3750" 
  }, 
  {
    "name": "Wembley", 
    "lat": "51.5528", 
    "lng": "-0.2979" 
  }, 
  {
    "name": "Saint Helens", 
    "lat": "53.4541", 
    "lng": "-2.7461" 
  }, 
  {
    "name": "Worcester", 
    "lat": "52.1920", 
    "lng": "-2.2200" 
  }, 
  {
    "name": "Wakefield", 
    "lat": "53.6800", 
    "lng": "-1.4900" 
  }, 
  {
    "name": "Lincoln", 
    "lat": "53.2344", 
    "lng": "-0.5386" 
  }, 
  {
    "name": "Hemel Hempstead", 
    "lat": "51.7526", 
    "lng": "-0.4692" 
  }, 
  {
    "name": "Watford", 
    "lat": "51.6550", 
    "lng": "-0.3957" 
  }, 
  {
    "name": "Oldham", 
    "lat": "53.5444", 
    "lng": "-2.1169" 
  }, 
  {
    "name": "Sutton Coldfield", 
    "lat": "52.5630", 
    "lng": "-1.8220" 
  }, 
  {
    "name": "Kettering", 
    "lat": "52.3931", 
    "lng": "-0.7229" 
  }, 
  {
    "name": "Hastings", 
    "lat": "50.8500", 
    "lng": "0.5700" 
  }, 
  {
    "name": "Hartlepool", 
    "lat": "54.6900", 
    "lng": "-1.2100" 
  }, 
  {
    "name": "Hove", 
    "lat": "50.8352", 
    "lng": "-0.1758" 
  }, 
  {
    "name": "Barnsley", 
    "lat": "53.5537", 
    "lng": "-1.4791" 
  }, 
  {
    "name": "Southport", 
    "lat": "53.6475", 
    "lng": "-3.0053" 
  }, 
  {
    "name": "Bath", 
    "lat": "51.3800", 
    "lng": "-2.3600" 
  }, 
  {
    "name": "Birkenhead", 
    "lat": "53.3930", 
    "lng": "-3.0140" 
  }, 
  {
    "name": "Grimsby", 
    "lat": "53.5595", 
    "lng": "-0.0680" 
  }, 
  {
    "name": "Halifax", 
    "lat": "53.7250", 
    "lng": "-1.8630" 
  }, 
  {
    "name": "Bromley", 
    "lat": "51.4070", 
    "lng": "0.0210" 
  }, 
  {
    "name": "Fulham", 
    "lat": "51.4828", 
    "lng": "-0.1950" 
  }, 
  {
    "name": "Nuneaton", 
    "lat": "52.5230", 
    "lng": "-1.4680" 
  }, 
  {
    "name": "Derry", 
    "lat": "54.9917", 
    "lng": "-7.3417" 
  }, 
  {
    "name": "Ealing", 
    "lat": "51.5175", 
    "lng": "-0.2988" 
  }, 
  {
    "name": "Stockton-on-Tees", 
    "lat": "54.5700", 
    "lng": "-1.3200" 
  }, 
  {
    "name": "Woolwich", 
    "lat": "51.4880", 
    "lng": "0.0630" 
  }, 
  {
    "name": "Bracknell", 
    "lat": "51.4160", 
    "lng": "-0.7490" 
  }, 
  {
    "name": "Hayes", 
    "lat": "51.5127", 
    "lng": "-0.4211" 
  }, 
  {
    "name": "Edmonton", 
    "lat": "51.6154", 
    "lng": "-0.0708" 
  }, 
  {
    "name": "Scunthorpe", 
    "lat": "53.5809", 
    "lng": "-0.6502" 
  }, 
  {
    "name": "Redditch", 
    "lat": "52.3069", 
    "lng": "-1.9492" 
  }, 
  {
    "name": "Chester", 
    "lat": "53.1900", 
    "lng": "-2.8900" 
  }, 
  {
    "name": "Dudley", 
    "lat": "52.5080", 
    "lng": "-2.0890" 
  }, 
  {
    "name": "Bury", 
    "lat": "53.5930", 
    "lng": "-2.2980" 
  }, 
  {
    "name": "Brixton", 
    "lat": "51.4630", 
    "lng": "-0.1060" 
  }, 
  {
    "name": "West Bromwich", 
    "lat": "52.5190", 
    "lng": "-1.9950" 
  }, 
  {
    "name": "Paisley", 
    "lat": "55.8466", 
    "lng": "-4.4236" 
  }, 
  {
    "name": "Guildford", 
    "lat": "51.2365", 
    "lng": "-0.5703" 
  }, 
  {
    "name": "Chatham", 
    "lat": "51.3700", 
    "lng": "0.5200" 
  }, 
  {
    "name": "Edgware", 
    "lat": "51.6185", 
    "lng": "-0.2729" 
  }, 
  {
    "name": "East Ham", 
    "lat": "51.5323", 
    "lng": "0.0554" 
  }, 
  {
    "name": "Weston-super-Mare", 
    "lat": "51.3460", 
    "lng": "-2.9770" 
  }, 
  {
    "name": "East Kilbride", 
    "lat": "55.7645", 
    "lng": "-4.1771" 
  }, 
  {
    "name": "South Shields", 
    "lat": "54.9950", 
    "lng": "-1.4300" 
  }, 
  {
    "name": "Carlisle", 
    "lat": "54.8910", 
    "lng": "-2.9440" 
  }, 
  {
    "name": "Newcastle under Lyme", 
    "lat": "53.0109", 
    "lng": "-2.2278" 
  }, 
  {
    "name": "Harrogate", 
    "lat": "53.9919", 
    "lng": "-1.5378" 
  }, 
  {
    "name": "Ashford", 
    "lat": "51.1465", 
    "lng": "0.8676" 
  }, 
  {
    "name": "Gravesend", 
    "lat": "51.4415", 
    "lng": "0.3685" 
  }, 
  {
    "name": "Burnley", 
    "lat": "53.7890", 
    "lng": "-2.2480" 
  }, 
  {
    "name": "Burton upon Trent", 
    "lat": "52.8019", 
    "lng": "-1.6367" 
  }, 
  {
    "name": "Crewe", 
    "lat": "53.0990", 
    "lng": "-2.4400" 
  }, 
  {
    "name": "Shrewsbury", 
    "lat": "52.7080", 
    "lng": "-2.7540" 
  }, 
  {
    "name": "Gosport", 
    "lat": "50.7948", 
    "lng": "-1.1243" 
  }, 
  {
    "name": "Lisburn", 
    "lat": "54.5167", 
    "lng": "-6.0333" 
  }, 
  {
    "name": "Lowestoft", 
    "lat": "52.4800", 
    "lng": "1.7500" 
  }, 
  {
    "name": "Rugby", 
    "lat": "52.3700", 
    "lng": "-1.2600" 
  }, 
  {
    "name": "Uxbridge", 
    "lat": "51.5404", 
    "lng": "-0.4778" 
  }, 
  {
    "name": "Inverness", 
    "lat": "57.4781", 
    "lng": "-4.2233" 
  }, 
  {
    "name": "Keighley", 
    "lat": "53.8670", 
    "lng": "-1.9110" 
  }, 
  {
    "name": "Southall", 
    "lat": "51.5121", 
    "lng": "-0.3779" 
  }, 
  {
    "name": "Maidenhead", 
    "lat": "51.5217", 
    "lng": "-0.7177" 
  }, 
  {
    "name": "Stafford", 
    "lat": "52.8066", 
    "lng": "-2.1171" 
  }, 
  {
    "name": "Wimbledon", 
    "lat": "51.4220", 
    "lng": "-0.2080" 
  }, 
  {
    "name": "Walsall", 
    "lat": "52.5800", 
    "lng": "-1.9800" 
  }, 
  {
    "name": "Tynemouth", 
    "lat": "55.0170", 
    "lng": "-1.4230" 
  }, 
  {
    "name": "Washington", 
    "lat": "54.9000", 
    "lng": "-1.5200" 
  }, 
  {
    "name": "Loughborough", 
    "lat": "52.7705", 
    "lng": "-1.2046" 
  }, 
  {
    "name": "Chingford", 
    "lat": "51.6310", 
    "lng": "0.0160" 
  }, 
  {
    "name": "Thornton Heath", 
    "lat": "51.4002", 
    "lng": "-0.1086" 
  }, 
  {
    "name": "Finchley", 
    "lat": "51.5990", 
    "lng": "-0.1870" 
  }, 
  {
    "name": "Wrecsam", 
    "lat": "53.0460", 
    "lng": "-2.9930" 
  }, 
  {
    "name": "Torquay", 
    "lat": "50.4700", 
    "lng": "-3.5300" 
  }, 
  {
    "name": "Farnborough", 
    "lat": "51.2900", 
    "lng": "-0.7500" 
  }, 
  {
    "name": "Kensington", 
    "lat": "51.5000", 
    "lng": "-0.1900" 
  }, 
  {
    "name": "Waterlooville", 
    "lat": "50.8800", 
    "lng": "-1.0300" 
  }, 
  {
    "name": "Hornchurch", 
    "lat": "51.5565", 
    "lng": "0.2128" 
  }, 
  {
    "name": "Mitcham", 
    "lat": "51.4009", 
    "lng": "-0.1517" 
  }, 
  {
    "name": "Feltham", 
    "lat": "51.4496", 
    "lng": "-0.4089" 
  }, 
  {
    "name": "Stourbridge", 
    "lat": "52.4575", 
    "lng": "-2.1479" 
  }, 
  {
    "name": "Rochester", 
    "lat": "51.3750", 
    "lng": "0.5000" 
  }, 
  {
    "name": "Dewsbury", 
    "lat": "53.6910", 
    "lng": "-1.6330" 
  }, 
  {
    "name": "Woking", 
    "lat": "51.3162", 
    "lng": "-0.5610" 
  }, 
  {
    "name": "Rhondda", 
    "lat": "51.6159", 
    "lng": "-3.4175" 
  }, 
  {
    "name": "Sittingbourne", 
    "lat": "51.3400", 
    "lng": "0.7400" 
  }, 
  {
    "name": "Acton", 
    "lat": "51.5135", 
    "lng": "-0.2707" 
  }, 
  {
    "name": "Twickenham", 
    "lat": "51.4490", 
    "lng": "-0.3370" 
  }, 
  {
    "name": "Runcorn", 
    "lat": "53.3410", 
    "lng": "-2.7290" 
  }, 
  {
    "name": "Scarborough", 
    "lat": "54.2773", 
    "lng": "-0.4017" 
  }, 
  {
    "name": "Wandsworth", 
    "lat": "51.4550", 
    "lng": "-0.1920" 
  }, 
  {
    "name": "Widnes", 
    "lat": "53.3630", 
    "lng": "-2.7280" 
  }, 
  {
    "name": "Margate", 
    "lat": "51.3850", 
    "lng": "1.3838" 
  }, 
  {
    "name": "Bangor", 
    "lat": "54.6600", 
    "lng": "-5.6700" 
  }, 
  {
    "name": "Morecambe", 
    "lat": "54.0730", 
    "lng": "-2.8700" 
  }, 
  {
    "name": "Taunton", 
    "lat": "51.0190", 
    "lng": "-3.1000" 
  }, 
  {
    "name": "Wallasey", 
    "lat": "53.4158", 
    "lng": "-3.0233" 
  }, 
  {
    "name": "Royal Tunbridge Wells", 
    "lat": "51.1320", 
    "lng": "0.2630" 
  }, 
  {
    "name": "Barking", 
    "lat": "51.5400", 
    "lng": "0.0800" 
  }, 
  {
    "name": "Aylesbury", 
    "lat": "51.8168", 
    "lng": "-0.8124" 
  }, 
  {
    "name": "Ruislip", 
    "lat": "51.5760", 
    "lng": "-0.4330" 
  }, 
  {
    "name": "Halesowen", 
    "lat": "52.4502", 
    "lng": "-2.0509" 
  }, 
  {
    "name": "Streatham", 
    "lat": "51.4279", 
    "lng": "-0.1235" 
  }, 
  {
    "name": "Livingston", 
    "lat": "55.8834", 
    "lng": "-3.5157" 
  }, 
  {
    "name": "Clacton-on-Sea", 
    "lat": "51.7918", 
    "lng": "1.1457" 
  }, 
  {
    "name": "Barrow in Furness", 
    "lat": "54.1108", 
    "lng": "-3.2261" 
  }, 
  {
    "name": "Hereford", 
    "lat": "52.0565", 
    "lng": "-2.7160" 
  }, 
  {
    "name": "Ellesmere Port", 
    "lat": "53.2790", 
    "lng": "-2.8970" 
  }, 
  {
    "name": "Kidderminster", 
    "lat": "52.3885", 
    "lng": "-2.2490" 
  }, 
  {
    "name": "Canterbury", 
    "lat": "51.2800", 
    "lng": "1.0800" 
  }, 
  {
    "name": "Corby", 
    "lat": "52.4914", 
    "lng": "-0.6965" 
  }, 
  {
    "name": "Brentwood", 
    "lat": "51.6204", 
    "lng": "0.3050" 
  }, 
  {
    "name": "Hamilton", 
    "lat": "55.7770", 
    "lng": "-4.0390" 
  }, 
  {
    "name": "Dunfermline", 
    "lat": "56.0719", 
    "lng": "-3.4393" 
  }, 
  {
    "name": "Braintree", 
    "lat": "51.8780", 
    "lng": "0.5500" 
  }, 
  {
    "name": "Weymouth", 
    "lat": "50.6130", 
    "lng": "-2.4570" 
  }, 
  {
    "name": "Hendon", 
    "lat": "51.5837", 
    "lng": "-0.2252" 
  }, 
  {
    "name": "Altrincham", 
    "lat": "53.3838", 
    "lng": "-2.3547" 
  }, 
  {
    "name": "Lancaster", 
    "lat": "54.0470", 
    "lng": "-2.8010" 
  }, 
  {
    "name": "Barri", 
    "lat": "51.4050", 
    "lng": "-3.2700" 
  }, 
  {
    "name": "Macclesfield", 
    "lat": "53.2581", 
    "lng": "-2.1274" 
  }, 
  {
    "name": "Bootle", 
    "lat": "53.4457", 
    "lng": "-2.9891" 
  }, 
  {
    "name": "Stratford", 
    "lat": "51.5423", 
    "lng": "-0.0026" 
  }, 
  {
    "name": "Horsham", 
    "lat": "51.0620", 
    "lng": "-0.3250" 
  }, 
  {
    "name": "Cumbernauld", 
    "lat": "55.9450", 
    "lng": "-3.9940" 
  }, 
  {
    "name": "Rowley Regis", 
    "lat": "52.4800", 
    "lng": "-2.0600" 
  }, 
  {
    "name": "Kirkcaldy", 
    "lat": "56.1107", 
    "lng": "-3.1674" 
  }, 
  {
    "name": "Crosby", 
    "lat": "53.4872", 
    "lng": "-3.0343" 
  }, 
  {
    "name": "Leith", 
    "lat": "55.9800", 
    "lng": "-3.1700" 
  }, 
  {
    "name": "Royal Leamington Spa", 
    "lat": "52.2920", 
    "lng": "-1.5370" 
  }, 
  {
    "name": "Llanelli", 
    "lat": "51.6840", 
    "lng": "-4.1630" 
  }, 
  {
    "name": "Batley", 
    "lat": "53.7160", 
    "lng": "-1.6270" 
  }, 
  {
    "name": "Pen-y-Bont ar Ogwr", 
    "lat": "51.5072", 
    "lng": "-3.5784" 
  }, 
  {
    "name": "Wellingborough", 
    "lat": "52.2939", 
    "lng": "-0.6964" 
  }, 
  {
    "name": "Sutton in Ashfield", 
    "lat": "53.1250", 
    "lng": "-1.2610" 
  }, 
  {
    "name": "Paignton", 
    "lat": "50.4353", 
    "lng": "-3.5625" 
  }, 
  {
    "name": "Eltham", 
    "lat": "51.4510", 
    "lng": "0.0520" 
  }, 
  {
    "name": "Cwmbran", 
    "lat": "51.6530", 
    "lng": "-3.0210" 
  }, 
  {
    "name": "Christchurch", 
    "lat": "50.7300", 
    "lng": "-1.7800" 
  }, 
  {
    "name": "Morden", 
    "lat": "51.4015", 
    "lng": "-0.1949" 
  }, 
  {
    "name": "Durham", 
    "lat": "54.7761", 
    "lng": "-1.5733" 
  }, 
  {
    "name": "Barnet", 
    "lat": "51.6444", 
    "lng": "-0.1997" 
  }, 
  {
    "name": "West Bridgford", 
    "lat": "52.9320", 
    "lng": "-1.1270" 
  }, 
  {
    "name": "Perth", 
    "lat": "56.3970", 
    "lng": "-3.4370" 
  }, 
  {
    "name": "Stretford", 
    "lat": "53.4466", 
    "lng": "-2.3086" 
  }, 
  {
    "name": "Banbury", 
    "lat": "52.0610", 
    "lng": "-1.3360" 
  }, 
  {
    "name": "Beckenham", 
    "lat": "51.4080", 
    "lng": "-0.0220" 
  }, 
  {
    "name": "Greenford", 
    "lat": "51.5299", 
    "lng": "-0.3488" 
  }, 
  {
    "name": "Wokingham", 
    "lat": "51.4100", 
    "lng": "-0.8400" 
  }, 
  {
    "name": "Folkestone", 
    "lat": "51.0810", 
    "lng": "1.1660" 
  }, 
  {
    "name": "Welwyn Garden City", 
    "lat": "51.8062", 
    "lng": "-0.1932" 
  }, 
  {
    "name": "Ayr", 
    "lat": "55.4580", 
    "lng": "-4.6290" 
  }, 
  {
    "name": "Kilmarnock", 
    "lat": "55.6111", 
    "lng": "-4.4957" 
  }, 
  {
    "name": "Havant", 
    "lat": "50.8500", 
    "lng": "-0.9800" 
  }, 
  {
    "name": "Chippenham", 
    "lat": "51.4585", 
    "lng": "-2.1158" 
  }, 
  {
    "name": "Erith", 
    "lat": "51.4800", 
    "lng": "0.1778" 
  }, 
  {
    "name": "Hinckley", 
    "lat": "52.5413", 
    "lng": "-1.3725" 
  }, 
  {
    "name": "Ashton", 
    "lat": "53.4897", 
    "lng": "-2.0952" 
  }, 
  {
    "name": "Winchester", 
    "lat": "51.0632", 
    "lng": "-1.3080" 
  }, 
  {
    "name": "Surbiton", 
    "lat": "51.3940", 
    "lng": "-0.3070" 
  }, 
  {
    "name": "Yeovil", 
    "lat": "50.9452", 
    "lng": "-2.6370" 
  }, 
  {
    "name": "Catford", 
    "lat": "51.4452", 
    "lng": "-0.0207" 
  }, 
  {
    "name": "Grantham", 
    "lat": "52.9180", 
    "lng": "-0.6380" 
  }, 
  {
    "name": "Morley", 
    "lat": "53.7492", 
    "lng": "-1.6023" 
  }, 
  {
    "name": "Cheshunt", 
    "lat": "51.7020", 
    "lng": "-0.0350" 
  }, 
  {
    "name": "Coatbridge", 
    "lat": "55.8625", 
    "lng": "-4.0266" 
  }, 
  {
    "name": "Wallsend", 
    "lat": "54.9910", 
    "lng": "-1.5340" 
  }, 
  {
    "name": "Merthyr Tudful", 
    "lat": "51.7430", 
    "lng": "-3.3780" 
  }, 
  {
    "name": "Bexhill", 
    "lat": "50.8424", 
    "lng": "0.4676" 
  }, 
  {
    "name": "Sidcup", 
    "lat": "51.4263", 
    "lng": "0.1024" 
  }, 
  {
    "name": "Kingston upon Thames", 
    "lat": "51.4103", 
    "lng": "-0.2995" 
  }, 
  {
    "name": "Middleton", 
    "lat": "53.5550", 
    "lng": "-2.1870" 
  }, 
  {
    "name": "King’s Lynn", 
    "lat": "52.7543", 
    "lng": "0.3976" 
  }, 
  {
    "name": "Fareham", 
    "lat": "50.8500", 
    "lng": "-1.1800" 
  }, 
  {
    "name": "Greenock", 
    "lat": "55.9500", 
    "lng": "-4.7650" 
  }, 
  {
    "name": "Urmston", 
    "lat": "53.4487", 
    "lng": "-2.3747" 
  }, 
  {
    "name": "Worksop", 
    "lat": "53.3042", 
    "lng": "-1.1244" 
  }, 
  {
    "name": "Sutton", 
    "lat": "51.3656", 
    "lng": "-0.1963" 
  }, 
  {
    "name": "Caerphilly", 
    "lat": "51.5780", 
    "lng": "-3.2180" 
  }, 
  {
    "name": "Bridgwater", 
    "lat": "51.1280", 
    "lng": "-2.9930" 
  }, 
  {
    "name": "Leigh", 
    "lat": "53.4975", 
    "lng": "-2.5150" 
  }, 
  {
    "name": "Newbury", 
    "lat": "51.4010", 
    "lng": "-1.3230" 
  }, 
  {
    "name": "Welling", 
    "lat": "51.4594", 
    "lng": "0.1097" 
  }, 
  {
    "name": "Kingswood", 
    "lat": "51.4600", 
    "lng": "-2.5050" 
  }, 
  {
    "name": "Bury Saint Edmunds", 
    "lat": "52.2474", 
    "lng": "0.7183" 
  }, 
  {
    "name": "Kirkby", 
    "lat": "53.4826", 
    "lng": "-2.8920" 
  }, 
  {
    "name": "Ramsgate", 
    "lat": "51.3360", 
    "lng": "1.4160" 
  }, 
  {
    "name": "Tonbridge", 
    "lat": "51.1987", 
    "lng": "0.2764" 
  }, 
  {
    "name": "Salisbury", 
    "lat": "51.0740", 
    "lng": "-1.7936" 
  }, 
  {
    "name": "Castleford", 
    "lat": "53.7160", 
    "lng": "-1.3560" 
  }, 
  {
    "name": "Bishops Stortford", 
    "lat": "51.8720", 
    "lng": "0.1725" 
  }, 
  {
    "name": "Abingdon", 
    "lat": "51.6670", 
    "lng": "-1.2830" 
  }, 
  {
    "name": "Aberdare", 
    "lat": "51.7130", 
    "lng": "-3.4450" 
  }, 
  {
    "name": "Farnham", 
    "lat": "51.2150", 
    "lng": "-0.7990" 
  }, 
  {
    "name": "Aldridge", 
    "lat": "52.6060", 
    "lng": "-1.9179" 
  }, 
  {
    "name": "Hatfield", 
    "lat": "51.7620", 
    "lng": "-0.2280" 
  }, 
  {
    "name": "Cleethorpes", 
    "lat": "53.5533", 
    "lng": "-0.0215" 
  }, 
  {
    "name": "Skelmersdale", 
    "lat": "53.5500", 
    "lng": "-2.7760" 
  }, 
  {
    "name": "Tipton", 
    "lat": "52.5259", 
    "lng": "-2.0751" 
  }, 
  {
    "name": "Eccles", 
    "lat": "53.4824", 
    "lng": "-2.3390" 
  }, 
  {
    "name": "Great Yarmouth", 
    "lat": "52.6060", 
    "lng": "1.7290" 
  }, 
  {
    "name": "Ilkeston", 
    "lat": "52.9710", 
    "lng": "-1.3090" 
  }, 
  {
    "name": "Herne Bay", 
    "lat": "51.3700", 
    "lng": "1.1300" 
  }, 
  {
    "name": "Andover", 
    "lat": "51.2080", 
    "lng": "-1.4800" 
  }, 
  {
    "name": "Glenrothes", 
    "lat": "56.1980", 
    "lng": "-3.1780" 
  }, 
  {
    "name": "Camberley", 
    "lat": "51.3350", 
    "lng": "-0.7420" 
  }, 
  {
    "name": "Stirling", 
    "lat": "56.1166", 
    "lng": "-3.9369" 
  }, 
  {
    "name": "Arnold", 
    "lat": "53.0050", 
    "lng": "-1.1270" 
  }, 
  {
    "name": "Long Eaton", 
    "lat": "52.8980", 
    "lng": "-1.2710" 
  }, 
  {
    "name": "Blyth", 
    "lat": "55.1260", 
    "lng": "-1.5140" 
  }, 
  {
    "name": "Port Talbot", 
    "lat": "51.5906", 
    "lng": "-3.7986" 
  }, 
  {
    "name": "Bletchley", 
    "lat": "51.9940", 
    "lng": "-0.7320" 
  }, 
  {
    "name": "Leighton Buzzard", 
    "lat": "51.9165", 
    "lng": "-0.6617" 
  }, 
  {
    "name": "Fleet", 
    "lat": "51.2834", 
    "lng": "-0.8456" 
  }, 
  {
    "name": "Beeston", 
    "lat": "52.9270", 
    "lng": "-1.2150" 
  }, 
  {
    "name": "Small Heath", 
    "lat": "52.4629", 
    "lng": "-1.8542" 
  }, 
  {
    "name": "Houghton le Spring", 
    "lat": "54.8410", 
    "lng": "-1.4680" 
  }, 
  {
    "name": "Whitley Bay", 
    "lat": "55.0456", 
    "lng": "-1.4443" 
  }, 
  {
    "name": "Airdrie", 
    "lat": "55.8600", 
    "lng": "-3.9800" 
  }, 
  {
    "name": "Grays", 
    "lat": "51.4750", 
    "lng": "0.3300" 
  }, 
  {
    "name": "Denton", 
    "lat": "53.4554", 
    "lng": "-2.1122" 
  }, 
  {
    "name": "Aldershot", 
    "lat": "51.2480", 
    "lng": "-0.7580" 
  }, 
  {
    "name": "Redcar", 
    "lat": "54.6180", 
    "lng": "-1.0690" 
  }, 
  {
    "name": "Walkden", 
    "lat": "53.5239", 
    "lng": "-2.3991" 
  }, 
  {
    "name": "Kenton", 
    "lat": "51.5878", 
    "lng": "-0.3086" 
  }, 
  {
    "name": "Leyland", 
    "lat": "53.6920", 
    "lng": "-2.6970" 
  }, 
  {
    "name": "Woodley", 
    "lat": "51.4530", 
    "lng": "-0.9020" 
  }, 
  {
    "name": "Accrington", 
    "lat": "53.7534", 
    "lng": "-2.3638" 
  }, 
  {
    "name": "Pont-y-pŵl", 
    "lat": "51.7030", 
    "lng": "-3.0410" 
  }, 
  {
    "name": "Bridlington", 
    "lat": "54.0819", 
    "lng": "-0.1923" 
  }, 
  {
    "name": "Falkirk", 
    "lat": "56.0011", 
    "lng": "-3.7835" 
  }, 
  {
    "name": "Billingham", 
    "lat": "54.6100", 
    "lng": "-1.2700" 
  }, 
  {
    "name": "Boston", 
    "lat": "52.9740", 
    "lng": "-0.0214" 
  }, 
  {
    "name": "Dunstable", 
    "lat": "51.8860", 
    "lng": "-0.5210" 
  }, 
  {
    "name": "Ewell", 
    "lat": "51.3500", 
    "lng": "-0.2490" 
  }, 
  {
    "name": "Chorley", 
    "lat": "53.6530", 
    "lng": "-2.6320" 
  }, 
  {
    "name": "Spalding", 
    "lat": "52.7858", 
    "lng": "-0.1529" 
  }, 
  {
    "name": "Exmouth", 
    "lat": "50.6200", 
    "lng": "-3.4130" 
  }, 
  {
    "name": "North Shields", 
    "lat": "55.0097", 
    "lng": "-1.4448" 
  }, 
  {
    "name": "Colwyn Bay", 
    "lat": "53.2900", 
    "lng": "-3.7000" 
  }, 
  {
    "name": "Irvine", 
    "lat": "55.6201", 
    "lng": "-4.6614" 
  }, 
  {
    "name": "Hyde", 
    "lat": "53.4474", 
    "lng": "-2.0820" 
  }, 
  {
    "name": "Wisbech", 
    "lat": "52.6640", 
    "lng": "0.1600" 
  }, 
  {
    "name": "Lichfield", 
    "lat": "52.6835", 
    "lng": "-1.8265" 
  }, 
  {
    "name": "Wickford", 
    "lat": "51.6114", 
    "lng": "0.5207" 
  }, 
  {
    "name": "Hitchin", 
    "lat": "51.9470", 
    "lng": "-0.2830" 
  }, 
  {
    "name": "Dumfries", 
    "lat": "55.0700", 
    "lng": "-3.6030" 
  }, 
  {
    "name": "Letchworth", 
    "lat": "51.9780", 
    "lng": "-0.2300" 
  }, 
  {
    "name": "Huyton", 
    "lat": "53.4100", 
    "lng": "-2.8430" 
  }, 
  {
    "name": "Strood", 
    "lat": "51.3930", 
    "lng": "0.4780" 
  }, 
  {
    "name": "Trowbridge", 
    "lat": "51.3200", 
    "lng": "-2.2100" 
  }, 
  {
    "name": "Glossop", 
    "lat": "53.4430", 
    "lng": "-1.9490" 
  }, 
  {
    "name": "Pontypridd", 
    "lat": "51.6020", 
    "lng": "-3.3420" 
  }, 
  {
    "name": "Stroud", 
    "lat": "51.7440", 
    "lng": "-2.2150" 
  }, 
  {
    "name": "Bicester", 
    "lat": "51.9000", 
    "lng": "-1.1500" 
  }, 
  {
    "name": "Winsford", 
    "lat": "53.1940", 
    "lng": "-2.5200" 
  }, 
  {
    "name": "Windsor", 
    "lat": "51.4791", 
    "lng": "-0.6095" 
  }, 
  {
    "name": "Motherwell", 
    "lat": "55.7839", 
    "lng": "-3.9852" 
  }, 
  {
    "name": "Brighouse", 
    "lat": "53.7070", 
    "lng": "-1.7940" 
  }, 
  {
    "name": "Wigston Magna", 
    "lat": "52.5812", 
    "lng": "-1.0930" 
  }, 
  {
    "name": "Swadlincote", 
    "lat": "52.7740", 
    "lng": "-1.5570" 
  }, 
  {
    "name": "Rayleigh", 
    "lat": "51.5864", 
    "lng": "0.6049" 
  }, 
  {
    "name": "Whitstable", 
    "lat": "51.3610", 
    "lng": "1.0260" 
  }, 
  {
    "name": "Ecclesfield", 
    "lat": "53.4429", 
    "lng": "-1.4698" 
  }, 
  {
    "name": "Ryde", 
    "lat": "50.7271", 
    "lng": "-1.1618" 
  }, 
  {
    "name": "Earley", 
    "lat": "51.4330", 
    "lng": "-0.9330" 
  }, 
  {
    "name": "Borehamwood", 
    "lat": "51.6578", 
    "lng": "-0.2723" 
  }, 
  {
    "name": "Bexleyheath", 
    "lat": "51.4590", 
    "lng": "0.1380" 
  }, 
  {
    "name": "Prestwich", 
    "lat": "53.5333", 
    "lng": "-2.2833" 
  }, 
  {
    "name": "Darwen", 
    "lat": "53.6980", 
    "lng": "-2.4610" 
  }, 
  {
    "name": "Epsom", 
    "lat": "51.3360", 
    "lng": "-0.2670" 
  }, 
  {
    "name": "Warwick", 
    "lat": "52.2800", 
    "lng": "-1.5900" 
  }, 
  {
    "name": "Pinner", 
    "lat": "51.5932", 
    "lng": "-0.3894" 
  }, 
  {
    "name": "Rutherglen", 
    "lat": "55.8286", 
    "lng": "-4.2139" 
  }, 
  {
    "name": "Loughton", 
    "lat": "51.6494", 
    "lng": "0.0735" 
  }, 
  {
    "name": "Dover", 
    "lat": "51.1295", 
    "lng": "1.3089" 
  }, 
  {
    "name": "Pontefract", 
    "lat": "53.6910", 
    "lng": "-1.3120" 
  }, 
  {
    "name": "Saint Neots", 
    "lat": "52.2280", 
    "lng": "-0.2700" 
  }, 
  {
    "name": "Bedworth", 
    "lat": "52.4750", 
    "lng": "-1.4770" 
  }, 
  {
    "name": "Burgess Hill", 
    "lat": "50.9535", 
    "lng": "-0.1262" 
  }, 
  {
    "name": "Northolt", 
    "lat": "51.5470", 
    "lng": "-0.3620" 
  }, 
  {
    "name": "Farnworth", 
    "lat": "53.5452", 
    "lng": "-2.3999" 
  }, 
  {
    "name": "Wishaw", 
    "lat": "55.7739", 
    "lng": "-3.9189" 
  }, 
  {
    "name": "Harpenden", 
    "lat": "51.8175", 
    "lng": "-0.3524" 
  }, 
  {
    "name": "Deal", 
    "lat": "51.2226", 
    "lng": "1.4006" 
  }, 
  {
    "name": "Radcliffe", 
    "lat": "53.5615", 
    "lng": "-2.3268" 
  }, 
  {
    "name": "Carshalton", 
    "lat": "51.3652", 
    "lng": "-0.1676" 
  }, 
  {
    "name": "Plympton", 
    "lat": "50.3860", 
    "lng": "-4.0510" 
  }, 
  {
    "name": "Bulwell", 
    "lat": "53.0010", 
    "lng": "-1.1970" 
  }, 
  {
    "name": "Cambuslang", 
    "lat": "55.8190", 
    "lng": "-4.1671" 
  }, 
  {
    "name": "Sevenoaks", 
    "lat": "51.2781", 
    "lng": "0.1874" 
  }, 
  {
    "name": "Northfleet", 
    "lat": "51.4400", 
    "lng": "0.3400" 
  }, 
  {
    "name": "Cramlington", 
    "lat": "55.0820", 
    "lng": "-1.5850" 
  }, 
  {
    "name": "Rushden", 
    "lat": "52.2880", 
    "lng": "-0.6010" 
  }, 
  {
    "name": "Bromsgrove", 
    "lat": "52.3353", 
    "lng": "-2.0579" 
  }, 
  {
    "name": "Nelson", 
    "lat": "53.8346", 
    "lng": "-2.2180" 
  }, 
  {
    "name": "Beverley", 
    "lat": "53.8450", 
    "lng": "-0.4270" 
  }, 
  {
    "name": "Cannock", 
    "lat": "52.6910", 
    "lng": "-2.0270" 
  }, 
  {
    "name": "Hanwell", 
    "lat": "51.5189", 
    "lng": "-0.3376" 
  }, 
  {
    "name": "Stanford le Hope", 
    "lat": "51.5140", 
    "lng": "0.4244" 
  }, 
  {
    "name": "Kendal", 
    "lat": "54.3260", 
    "lng": "-2.7450" 
  }, 
  {
    "name": "Willenhall", 
    "lat": "52.5798", 
    "lng": "-2.0605" 
  }, 
  {
    "name": "Wood Green", 
    "lat": "51.5981", 
    "lng": "-0.1149" 
  }, 
  {
    "name": "Heywood", 
    "lat": "53.5900", 
    "lng": "-2.2190" 
  }, 
  {
    "name": "Bearsden", 
    "lat": "55.9192", 
    "lng": "-4.3332" 
  }, 
  {
    "name": "Reddish", 
    "lat": "53.4383", 
    "lng": "-2.1613" 
  }, 
  {
    "name": "Billericay", 
    "lat": "51.6280", 
    "lng": "0.4184" 
  }, 
  {
    "name": "Darlaston", 
    "lat": "52.5708", 
    "lng": "-2.0457" 
  }, 
  {
    "name": "Littlehampton", 
    "lat": "50.8094", 
    "lng": "-0.5409" 
  }, 
  {
    "name": "Ashington", 
    "lat": "55.1810", 
    "lng": "-1.5680" 
  }, 
  {
    "name": "Newton Mearns", 
    "lat": "55.7716", 
    "lng": "-4.3347" 
  }, 
  {
    "name": "Yate", 
    "lat": "51.5402", 
    "lng": "-2.4110" 
  }, 
  {
    "name": "Jarrow", 
    "lat": "54.9797", 
    "lng": "-1.4804" 
  }, 
  {
    "name": "Witney", 
    "lat": "51.7800", 
    "lng": "-1.4900" 
  }, 
  {
    "name": "Stratford-upon-Avon", 
    "lat": "52.1928", 
    "lng": "-1.7064" 
  }, 
  {
    "name": "Shotley Bridge", 
    "lat": "54.8700", 
    "lng": "-1.8600" 
  }, 
  {
    "name": "Ashford", 
    "lat": "51.4340", 
    "lng": "-0.4640" 
  }, 
  {
    "name": "Ormskirk", 
    "lat": "53.5665", 
    "lng": "-2.8869" 
  }, 
  {
    "name": "Longton", 
    "lat": "52.9877", 
    "lng": "-2.1327" 
  }, 
  {
    "name": "Melton Mowbray", 
    "lat": "52.7661", 
    "lng": "-0.8860" 
  }, 
  {
    "name": "Haverhill", 
    "lat": "52.0800", 
    "lng": "0.4400" 
  }, 
  {
    "name": "Didcot", 
    "lat": "51.6060", 
    "lng": "-1.2410" 
  }, 
  {
    "name": "Clifton", 
    "lat": "52.9040", 
    "lng": "-1.1770" 
  }, 
  {
    "name": "Chichester", 
    "lat": "50.8365", 
    "lng": "-0.7792" 
  }, 
  {
    "name": "Hertford", 
    "lat": "51.7950", 
    "lng": "-0.0780" 
  }, 
  {
    "name": "Highbury", 
    "lat": "51.5520", 
    "lng": "-0.0970" 
  }, 
  {
    "name": "Newton Aycliffe", 
    "lat": "54.6200", 
    "lng": "-1.5800" 
  }, 
  {
    "name": "Fern Down", 
    "lat": "50.8100", 
    "lng": "-1.9000" 
  }, 
  {
    "name": "Congleton", 
    "lat": "53.1620", 
    "lng": "-2.2170" 
  }, 
  {
    "name": "Cheadle Hulme", 
    "lat": "53.3761", 
    "lng": "-2.1897" 
  }, 
  {
    "name": "East Grinstead", 
    "lat": "51.1290", 
    "lng": "-0.0070" 
  }, 
  {
    "name": "Thatcham", 
    "lat": "51.4050", 
    "lng": "-1.2640" 
  }, 
  {
    "name": "Frome", 
    "lat": "51.2279", 
    "lng": "-2.3215" 
  }, 
  {
    "name": "Burntwood", 
    "lat": "52.6831", 
    "lng": "-1.9200" 
  }, 
  {
    "name": "Clydebank", 
    "lat": "55.8997", 
    "lng": "-4.4006" 
  }, 
  {
    "name": "Fleetwood", 
    "lat": "53.9230", 
    "lng": "-3.0150" 
  }, 
  {
    "name": "Bournville", 
    "lat": "52.4299", 
    "lng": "-1.9355" 
  }, 
  {
    "name": "Shenley Brook End", 
    "lat": "52.0090", 
    "lng": "-0.7890" 
  }, 
  {
    "name": "Bushey", 
    "lat": "51.6429", 
    "lng": "-0.3604" 
  }, 
  {
    "name": "New Milton", 
    "lat": "50.7600", 
    "lng": "-1.6500" 
  }, 
  {
    "name": "Northfield", 
    "lat": "52.4080", 
    "lng": "-1.9630" 
  }, 
  {
    "name": "Coulsdon", 
    "lat": "51.3211", 
    "lng": "-0.1386" 
  }, 
  {
    "name": "Bilston", 
    "lat": "52.5660", 
    "lng": "-2.0728" 
  }, 
  {
    "name": "Newton Abbot", 
    "lat": "50.5290", 
    "lng": "-3.6100" 
  }, 
  {
    "name": "Wellington", 
    "lat": "52.7001", 
    "lng": "-2.5157" 
  }, 
  {
    "name": "Newport", 
    "lat": "50.7010", 
    "lng": "-1.2883" 
  }, 
  {
    "name": "Oldbury", 
    "lat": "52.5050", 
    "lng": "-2.0159" 
  }, 
  {
    "name": "Bishop Auckland", 
    "lat": "54.6566", 
    "lng": "-1.6768" 
  }, 
  {
    "name": "Longbridge", 
    "lat": "52.3950", 
    "lng": "-1.9790" 
  }, 
  {
    "name": "Bloxwich", 
    "lat": "52.6140", 
    "lng": "-2.0040" 
  }, 
  {
    "name": "Upminster", 
    "lat": "51.5557", 
    "lng": "0.2512" 
  }, 
  {
    "name": "Witham", 
    "lat": "51.7978", 
    "lng": "0.6373" 
  }, 
  {
    "name": "Workington", 
    "lat": "54.6365", 
    "lng": "-3.5549" 
  }, 
  {
    "name": "Kingswinford", 
    "lat": "52.4981", 
    "lng": "-2.1657" 
  }, 
  {
    "name": "Rhyl", 
    "lat": "53.3210", 
    "lng": "-3.4800" 
  }, 
  {
    "name": "Daventry", 
    "lat": "52.2600", 
    "lng": "-1.1600" 
  }, 
  {
    "name": "Hindley", 
    "lat": "53.5355", 
    "lng": "-2.5658" 
  }, 
  {
    "name": "Rainham", 
    "lat": "51.3600", 
    "lng": "0.6100" 
  }, 
  {
    "name": "Portishead", 
    "lat": "51.4840", 
    "lng": "-2.7626" 
  }, 
  {
    "name": "Pitsea", 
    "lat": "51.5690", 
    "lng": "0.5040" 
  }, 
  {
    "name": "Westhoughton", 
    "lat": "53.5490", 
    "lng": "-2.5290" 
  }, 
  {
    "name": "Broadstairs", 
    "lat": "51.3589", 
    "lng": "1.4394" 
  }, 
  {
    "name": "Consett", 
    "lat": "54.8500", 
    "lng": "-1.8300" 
  }, 
  {
    "name": "Thornaby on Tees", 
    "lat": "54.5556", 
    "lng": "-1.3049" 
  }, 
  {
    "name": "Wilmslow", 
    "lat": "53.3250", 
    "lng": "-2.2390" 
  }, 
  {
    "name": "Kings Norton", 
    "lat": "52.4072", 
    "lng": "-1.9272" 
  }, 
  {
    "name": "Thetford", 
    "lat": "52.4100", 
    "lng": "0.7400" 
  }, 
  {
    "name": "Elgin", 
    "lat": "57.6500", 
    "lng": "-3.3150" 
  }, 
  {
    "name": "Chester-le-Street", 
    "lat": "54.8594", 
    "lng": "-1.5699" 
  }, 
  {
    "name": "Farnley", 
    "lat": "53.7876", 
    "lng": "-1.6159" 
  }, 
  {
    "name": "Great Sankey", 
    "lat": "53.3918", 
    "lng": "-2.6383" 
  }, 
  {
    "name": "Golborne", 
    "lat": "53.4758", 
    "lng": "-2.5943" 
  }, 
  {
    "name": "Plymstock", 
    "lat": "50.3569", 
    "lng": "-4.0900" 
  }, 
  {
    "name": "Bognor Regis", 
    "lat": "50.7824", 
    "lng": "-0.6764" 
  }, 
  {
    "name": "Barnstaple", 
    "lat": "51.0800", 
    "lng": "-4.0600" 
  }, 
  {
    "name": "Rugeley", 
    "lat": "52.7599", 
    "lng": "-1.9388" 
  }, 
  {
    "name": "Eastleigh", 
    "lat": "50.9667", 
    "lng": "-1.3500" 
  }, 
  {
    "name": "Ashton in Makerfield", 
    "lat": "53.4870", 
    "lng": "-2.6410" 
  }, 
  {
    "name": "Whitehaven", 
    "lat": "54.5480", 
    "lng": "-3.5855" 
  }, 
  {
    "name": "Rickmansworth", 
    "lat": "51.6383", 
    "lng": "-0.4659" 
  }, 
  {
    "name": "Littleover", 
    "lat": "52.9060", 
    "lng": "-1.5050" 
  }, 
  {
    "name": "Caversham", 
    "lat": "51.4670", 
    "lng": "-0.9730" 
  }, 
  {
    "name": "Oadby", 
    "lat": "52.5987", 
    "lng": "-1.0763" 
  }, 
  {
    "name": "Bishopbriggs", 
    "lat": "55.9046", 
    "lng": "-4.2250" 
  }, 
  {
    "name": "Kidsgrove", 
    "lat": "53.0874", 
    "lng": "-2.2478" 
  }, 
  {
    "name": "Huntingdon", 
    "lat": "52.3364", 
    "lng": "-0.1717" 
  }, 
  {
    "name": "Stalybridge", 
    "lat": "53.4834", 
    "lng": "-2.0400" 
  }, 
  {
    "name": "Stanmore", 
    "lat": "51.6180", 
    "lng": "-0.3140" 
  }, 
  {
    "name": "Felixstowe", 
    "lat": "51.9639", 
    "lng": "1.3515" 
  }, 
  {
    "name": "Marple", 
    "lat": "53.3970", 
    "lng": "-2.0610" 
  }, 
  {
    "name": "Perry Barr", 
    "lat": "52.5249", 
    "lng": "-1.9042" 
  }, 
  {
    "name": "Gosforth", 
    "lat": "55.0070", 
    "lng": "-1.6230" 
  }, 
  {
    "name": "Droitwich", 
    "lat": "52.2670", 
    "lng": "-2.1530" 
  }, 
  {
    "name": "Arbroath", 
    "lat": "56.5610", 
    "lng": "-2.5860" 
  }, 
  {
    "name": "Seaford", 
    "lat": "50.7700", 
    "lng": "0.1000" 
  }, 
  {
    "name": "Evesham", 
    "lat": "52.0920", 
    "lng": "-1.9470" 
  }, 
  {
    "name": "Whitefield", 
    "lat": "53.5521", 
    "lng": "-2.2992" 
  }, 
  {
    "name": "Penwortham", 
    "lat": "53.7400", 
    "lng": "-2.7200" 
  }, 
  {
    "name": "Harborne", 
    "lat": "52.4600", 
    "lng": "-1.9500" 
  }, 
  {
    "name": "Swinton", 
    "lat": "53.5122", 
    "lng": "-2.3412" 
  }, 
  {
    "name": "Market Harborough", 
    "lat": "52.4775", 
    "lng": "-0.9206" 
  }, 
  {
    "name": "Penistone", 
    "lat": "53.5250", 
    "lng": "-1.6290" 
  }, 
  {
    "name": "Gainsborough", 
    "lat": "53.4016", 
    "lng": "-0.7732" 
  }, 
  {
    "name": "Walton upon Thames", 
    "lat": "51.3868", 
    "lng": "-0.4133" 
  }, 
  {
    "name": "Erdington", 
    "lat": "52.5236", 
    "lng": "-1.8378" 
  }, 
  {
    "name": "Haywards Heath", 
    "lat": "51.0048", 
    "lng": "-0.0979" 
  }, 
  {
    "name": "Stratton Saint Margaret", 
    "lat": "51.5860", 
    "lng": "-1.7620" 
  }, 
  {
    "name": "Droylsden", 
    "lat": "53.4828", 
    "lng": "-2.1582" 
  }, 
  {
    "name": "Wednesfield", 
    "lat": "52.5998", 
    "lng": "-2.0817" 
  }, 
  {
    "name": "Calverley", 
    "lat": "53.8266", 
    "lng": "-1.6908" 
  }, 
  {
    "name": "Leigh-on-Sea", 
    "lat": "51.5425", 
    "lng": "0.6535" 
  }, 
  {
    "name": "Formby", 
    "lat": "53.5586", 
    "lng": "-3.0666" 
  }, 
  {
    "name": "Kenilworth", 
    "lat": "52.3410", 
    "lng": "-1.5660" 
  }, 
  {
    "name": "Pudsey", 
    "lat": "53.7970", 
    "lng": "-1.6630" 
  }, 
  {
    "name": "Guiseley", 
    "lat": "53.8750", 
    "lng": "-1.7060" 
  }, 
  {
    "name": "Alfreton", 
    "lat": "53.0970", 
    "lng": "-1.3800" 
  }, 
  {
    "name": "March", 
    "lat": "52.5510", 
    "lng": "0.0880" 
  }, 
  {
    "name": "Litherland", 
    "lat": "53.4727", 
    "lng": "-2.9990" 
  }, 
  {
    "name": "Yeadon", 
    "lat": "53.8690", 
    "lng": "-1.6880" 
  }, 
  {
    "name": "Acomb", 
    "lat": "53.9550", 
    "lng": "-1.1260" 
  }, 
  {
    "name": "Buxton", 
    "lat": "53.2590", 
    "lng": "-1.9110" 
  }, 
  {
    "name": "Newton in Makerfield", 
    "lat": "53.4500", 
    "lng": "-2.6330" 
  }, 
  {
    "name": "Penarth", 
    "lat": "51.4300", 
    "lng": "-3.1700" 
  }, 
  {
    "name": "Horley", 
    "lat": "51.1740", 
    "lng": "-0.1720" 
  }, 
  {
    "name": "Northwood", 
    "lat": "51.6010", 
    "lng": "-0.4176" 
  }, 
  {
    "name": "East Retford", 
    "lat": "53.3228", 
    "lng": "-0.9431" 
  }, 
  {
    "name": "Atherton", 
    "lat": "53.5230", 
    "lng": "-2.4950" 
  }, 
  {
    "name": "Rawtenstall", 
    "lat": "53.6990", 
    "lng": "-2.2910" 
  }, 
  {
    "name": "Musselburgh", 
    "lat": "55.9420", 
    "lng": "-3.0540" 
  }, 
  {
    "name": "Renfrew", 
    "lat": "55.8791", 
    "lng": "-4.3868" 
  }, 
  {
    "name": "Belper", 
    "lat": "53.0290", 
    "lng": "-1.4750" 
  }, 
  {
    "name": "Reigate", 
    "lat": "51.2370", 
    "lng": "-0.2060" 
  }, 
  {
    "name": "Sheldon", 
    "lat": "52.4500", 
    "lng": "-1.7666" 
  }, 
  {
    "name": "Godalming", 
    "lat": "51.1800", 
    "lng": "-0.6100" 
  }, 
  {
    "name": "Falmouth", 
    "lat": "50.1500", 
    "lng": "-5.0700" 
  }, 
  {
    "name": "Kilwinning", 
    "lat": "55.6550", 
    "lng": "-4.7030" 
  }, 
  {
    "name": "Potters Bar", 
    "lat": "51.6980", 
    "lng": "-0.1830" 
  }, 
  {
    "name": "Camborne", 
    "lat": "50.2130", 
    "lng": "-5.3000" 
  }, 
  {
    "name": "Linslade", 
    "lat": "51.9243", 
    "lng": "-0.6774" 
  }, 
  {
    "name": "Chesham", 
    "lat": "51.7120", 
    "lng": "-0.6120" 
  }, 
  {
    "name": "Richmond", 
    "lat": "51.4560", 
    "lng": "-0.3010" 
  }, 
  {
    "name": "Chandlers Ford", 
    "lat": "50.9840", 
    "lng": "-1.3792" 
  }, 
  {
    "name": "Darton", 
    "lat": "53.5850", 
    "lng": "-1.5325" 
  }, 
  {
    "name": "Royton", 
    "lat": "53.5660", 
    "lng": "-2.1210" 
  }, 
  {
    "name": "Clevedon", 
    "lat": "51.4380", 
    "lng": "-2.8540" 
  }, 
  {
    "name": "Dronfield", 
    "lat": "53.3024", 
    "lng": "-1.4664" 
  }, 
  {
    "name": "Ossett", 
    "lat": "53.6800", 
    "lng": "-1.5800" 
  }, 
  {
    "name": "Penzance", 
    "lat": "50.1190", 
    "lng": "-5.5370" 
  }, 
  {
    "name": "Waltham Abbey", 
    "lat": "51.6846", 
    "lng": "0.0004" 
  }, 
  {
    "name": "Omagh", 
    "lat": "54.5900", 
    "lng": "-7.2900" 
  }, 
  {
    "name": "Caterham", 
    "lat": "51.2803", 
    "lng": "-0.0816" 
  }, 
  {
    "name": "Woodlesford", 
    "lat": "53.7567", 
    "lng": "-1.4530" 
  }, 
  {
    "name": "Maesteg", 
    "lat": "51.6100", 
    "lng": "-3.6500" 
  }, 
  {
    "name": "Normanton", 
    "lat": "53.6970", 
    "lng": "-1.4160" 
  }, 
  {
    "name": "Wallington", 
    "lat": "51.3647", 
    "lng": "-0.1403" 
  }, 
  {
    "name": "Ripley", 
    "lat": "53.0500", 
    "lng": "-1.4070" 
  }, 
  {
    "name": "Sandhurst", 
    "lat": "51.3490", 
    "lng": "-0.8000" 
  }, 
  {
    "name": "Leek", 
    "lat": "53.1080", 
    "lng": "-2.0234" 
  }, 
  {
    "name": "Alloa", 
    "lat": "56.1160", 
    "lng": "-3.7930" 
  }, 
  {
    "name": "Boscombe", 
    "lat": "50.7250", 
    "lng": "-1.8400" 
  }, 
  {
    "name": "Llandudno", 
    "lat": "53.3250", 
    "lng": "-3.8260" 
  }, 
  {
    "name": "Failsworth", 
    "lat": "53.5102", 
    "lng": "-2.1575" 
  }, 
  {
    "name": "Kirkstall", 
    "lat": "53.8160", 
    "lng": "-1.6020" 
  }, 
  {
    "name": "Kirkby in Ashfield", 
    "lat": "53.0990", 
    "lng": "-1.2450" 
  }, 
  {
    "name": "Bellshill", 
    "lat": "55.8165", 
    "lng": "-4.0262" 
  }, 
  {
    "name": "Crowborough", 
    "lat": "51.0600", 
    "lng": "0.1600" 
  }, 
  {
    "name": "Shoreham-by-Sea", 
    "lat": "50.8340", 
    "lng": "-0.2730" 
  }, 
  {
    "name": "Dumbarton", 
    "lat": "55.9500", 
    "lng": "-4.5667" 
  }, 
  {
    "name": "Hythe", 
    "lat": "50.8690", 
    "lng": "-1.3990" 
  }, 
  {
    "name": "Hailsham", 
    "lat": "50.8647", 
    "lng": "0.2577" 
  }, 
  {
    "name": "Maghull", 
    "lat": "53.5174", 
    "lng": "-2.9449" 
  }, 
  {
    "name": "Bathgate", 
    "lat": "55.9024", 
    "lng": "-3.6431" 
  }, 
  {
    "name": "Rothwell", 
    "lat": "53.7485", 
    "lng": "-1.4780" 
  }, 
  {
    "name": "Newquay", 
    "lat": "50.4120", 
    "lng": "-5.0757" 
  }, 
  {
    "name": "Hoddesdon", 
    "lat": "51.7590", 
    "lng": "-0.0150" 
  }, 
  {
    "name": "Seaham", 
    "lat": "54.8400", 
    "lng": "-1.3400" 
  }, 
  {
    "name": "Peterlee", 
    "lat": "54.7600", 
    "lng": "-1.3300" 
  }, 
  {
    "name": "Halewood", 
    "lat": "53.3599", 
    "lng": "-2.8400" 
  }, 
  {
    "name": "Ely", 
    "lat": "52.3981", 
    "lng": "0.2622" 
  }, 
  {
    "name": "Killingworth", 
    "lat": "55.0318", 
    "lng": "-1.5557" 
  }, 
  {
    "name": "Horwich", 
    "lat": "53.5920", 
    "lng": "-2.5400" 
  }, 
  {
    "name": "Bispham", 
    "lat": "53.8520", 
    "lng": "-3.0410" 
  }, 
  {
    "name": "Antrim", 
    "lat": "54.7173", 
    "lng": "-6.2055" 
  }, 
  {
    "name": "Wetherby", 
    "lat": "53.9276", 
    "lng": "-1.3839" 
  }, 
  {
    "name": "Saint Austell", 
    "lat": "50.3386", 
    "lng": "-4.7922" 
  }, 
  {
    "name": "Irlam", 
    "lat": "53.4450", 
    "lng": "-2.4220" 
  }, 
  {
    "name": "Northwich", 
    "lat": "53.2590", 
    "lng": "-2.5180" 
  }, 
  {
    "name": "Biddulph", 
    "lat": "53.1200", 
    "lng": "-2.1700" 
  }, 
  {
    "name": "Spennymoor", 
    "lat": "54.7000", 
    "lng": "-1.5900" 
  }, 
  {
    "name": "Barrhead", 
    "lat": "55.8016", 
    "lng": "-4.3880" 
  }, 
  {
    "name": "Garforth", 
    "lat": "53.7920", 
    "lng": "-1.3880" 
  }, 
  {
    "name": "Tewkesbury", 
    "lat": "51.9900", 
    "lng": "-2.1600" 
  }, 
  {
    "name": "Stamford", 
    "lat": "52.6560", 
    "lng": "-0.4840" 
  }, 
  {
    "name": "Kirkintilloch", 
    "lat": "55.9357", 
    "lng": "-4.1547" 
  }, 
  {
    "name": "Davyhulme", 
    "lat": "53.4559", 
    "lng": "-2.3683" 
  }, 
  {
    "name": "Skegness", 
    "lat": "53.1400", 
    "lng": "0.3400" 
  }, 
  {
    "name": "Burnham-on-Sea", 
    "lat": "51.2376", 
    "lng": "-2.9935" 
  }, 
  {
    "name": "Abbots Langley", 
    "lat": "51.7010", 
    "lng": "-0.4160" 
  }, 
  {
    "name": "Mirfield", 
    "lat": "53.6807", 
    "lng": "-1.6888" 
  }, 
  {
    "name": "Tiverton", 
    "lat": "50.9030", 
    "lng": "-3.4880" 
  }, 
  {
    "name": "Goole", 
    "lat": "53.6992", 
    "lng": "-0.8692" 
  }, 
  {
    "name": "South Ockendon", 
    "lat": "51.5207", 
    "lng": "0.2956" 
  }, 
  {
    "name": "Romsey", 
    "lat": "50.9890", 
    "lng": "-1.4966" 
  }, 
  {
    "name": "Kempston", 
    "lat": "52.1140", 
    "lng": "-0.4970" 
  }, 
  {
    "name": "Adel", 
    "lat": "53.8489", 
    "lng": "-1.5849" 
  }, 
  {
    "name": "Liversedge", 
    "lat": "53.7067", 
    "lng": "-1.6900" 
  }, 
  {
    "name": "Hampton", 
    "lat": "51.4220", 
    "lng": "-0.3670" 
  }, 
  {
    "name": "Great Linford", 
    "lat": "52.0680", 
    "lng": "-0.7637" 
  }, 
  {
    "name": "Faversham", 
    "lat": "51.3177", 
    "lng": "0.8928" 
  }, 
  {
    "name": "Dukinfield", 
    "lat": "53.4739", 
    "lng": "-2.0828" 
  }, 
  {
    "name": "Stowmarket", 
    "lat": "52.1900", 
    "lng": "1.0000" 
  }, 
  {
    "name": "Neath", 
    "lat": "51.6600", 
    "lng": "-3.8100" 
  }, 
  {
    "name": "Ecclesall", 
    "lat": "53.3620", 
    "lng": "-1.4980" 
  }, 
  {
    "name": "Molesey", 
    "lat": "51.4010", 
    "lng": "-0.3630" 
  }, 
  {
    "name": "Cirencester", 
    "lat": "51.7190", 
    "lng": "-1.9680" 
  }, 
  {
    "name": "Dorchester", 
    "lat": "50.7154", 
    "lng": "-2.4367" 
  }, 
  {
    "name": "Monkseaton", 
    "lat": "55.0430", 
    "lng": "-1.4590" 
  }, 
  {
    "name": "Linlithgow", 
    "lat": "55.9791", 
    "lng": "-3.6105" 
  }, 
  {
    "name": "Southbourne", 
    "lat": "50.7220", 
    "lng": "-1.7980" 
  }, 
  {
    "name": "Horsforth", 
    "lat": "53.8341", 
    "lng": "-1.6429" 
  }, 
  {
    "name": "Prestatyn", 
    "lat": "53.3310", 
    "lng": "-3.4050" 
  }, 
  {
    "name": "Kilbirnie", 
    "lat": "55.7550", 
    "lng": "-4.6860" 
  }, 
  {
    "name": "Lancing", 
    "lat": "50.8320", 
    "lng": "-0.3190" 
  }, 
  {
    "name": "Ware", 
    "lat": "51.8109", 
    "lng": "-0.0314" 
  }, 
  {
    "name": "Truro", 
    "lat": "50.2600", 
    "lng": "-5.0510" 
  }, 
  {
    "name": "Eastwood", 
    "lat": "53.0180", 
    "lng": "-1.3040" 
  }, 
  {
    "name": "East Dereham", 
    "lat": "52.6810", 
    "lng": "0.9400" 
  }, 
  {
    "name": "Ebbw Vale", 
    "lat": "51.7779", 
    "lng": "-3.2117" 
  }, 
  {
    "name": "Peterhead", 
    "lat": "57.5091", 
    "lng": "-1.7832" 
  }, 
  {
    "name": "Appley Bridge", 
    "lat": "53.5790", 
    "lng": "-2.7210" 
  }, 
  {
    "name": "Berkhampstead", 
    "lat": "51.7600", 
    "lng": "-0.5600" 
  }, 
  {
    "name": "Rawmarsh", 
    "lat": "53.4636", 
    "lng": "-1.3439" 
  }, 
  {
    "name": "Poulton le Fylde", 
    "lat": "53.8470", 
    "lng": "-2.9950" 
  }, 
  {
    "name": "Staines-upon-Thames", 
    "lat": "51.4330", 
    "lng": "-0.5170" 
  }, 
  {
    "name": "Bedlington", 
    "lat": "55.1330", 
    "lng": "-1.5830" 
  }, 
  {
    "name": "Mill Hill", 
    "lat": "51.6200", 
    "lng": "-0.2300" 
  }, 
  {
    "name": "Almondbury", 
    "lat": "53.6344", 
    "lng": "-1.7489" 
  }, 
  {
    "name": "Hadleigh", 
    "lat": "51.5535", 
    "lng": "0.6095" 
  }, 
  {
    "name": "Staveley", 
    "lat": "53.2694", 
    "lng": "-1.3484" 
  }, 
  {
    "name": "Fulwood", 
    "lat": "53.3650", 
    "lng": "-1.5440" 
  }, 
  {
    "name": "Redhill", 
    "lat": "51.2393", 
    "lng": "-0.1726" 
  }, 
  {
    "name": "Aberystwyth", 
    "lat": "52.4140", 
    "lng": "-4.0810" 
  }, 
  {
    "name": "Sunbury", 
    "lat": "51.4230", 
    "lng": "-0.4240" 
  }, 
  {
    "name": "Mickleover", 
    "lat": "52.9010", 
    "lng": "-1.5520" 
  }, 
  {
    "name": "Sandbach", 
    "lat": "53.1460", 
    "lng": "-2.3670" 
  }, 
  {
    "name": "Madeley", 
    "lat": "52.6370", 
    "lng": "-2.4480" 
  }, 
  {
    "name": "Grangemouth", 
    "lat": "56.0120", 
    "lng": "-3.7170" 
  }, 
  {
    "name": "Ramsbottom", 
    "lat": "53.6484", 
    "lng": "-2.3169" 
  }, 
  {
    "name": "Colne", 
    "lat": "53.8554", 
    "lng": "-2.1756" 
  }, 
  {
    "name": "Alton", 
    "lat": "51.1498", 
    "lng": "-0.9769" 
  }, 
  {
    "name": "Portchester", 
    "lat": "50.8420", 
    "lng": "-1.1200" 
  }, 
  {
    "name": "Guisborough", 
    "lat": "54.5350", 
    "lng": "-1.0563" 
  }, 
  {
    "name": "Harwich", 
    "lat": "51.9340", 
    "lng": "1.2660" 
  }, 
  {
    "name": "Sleaford", 
    "lat": "52.9960", 
    "lng": "-0.4130" 
  }, 
  {
    "name": "Moreton", 
    "lat": "53.4010", 
    "lng": "-3.1110" 
  }, 
  {
    "name": "Quedgeley", 
    "lat": "51.8250", 
    "lng": "-2.2800" 
  }, 
  {
    "name": "Warminster", 
    "lat": "51.2050", 
    "lng": "-2.1810" 
  }, 
  {
    "name": "Woodhouse", 
    "lat": "53.3580", 
    "lng": "-1.3730" 
  }, 
  {
    "name": "Bramhall", 
    "lat": "53.3570", 
    "lng": "-2.1640" 
  }, 
  {
    "name": "Nantwich", 
    "lat": "53.0670", 
    "lng": "-2.5220" 
  }, 
  {
    "name": "Hednesford", 
    "lat": "52.7115", 
    "lng": "-2.0006" 
  }, 
  {
    "name": "Lewes", 
    "lat": "50.8756", 
    "lng": "0.0179" 
  }, 
  {
    "name": "Houghton Regis", 
    "lat": "51.9039", 
    "lng": "-0.5247" 
  }, 
  {
    "name": "Thornton", 
    "lat": "53.7898", 
    "lng": "-1.8504" 
  }, 
  {
    "name": "Calne", 
    "lat": "51.4380", 
    "lng": "-2.0050" 
  }, 
  {
    "name": "Heanor", 
    "lat": "53.0140", 
    "lng": "-1.3540" 
  }, 
  {
    "name": "Friern Barnet", 
    "lat": "51.6126", 
    "lng": "-0.1584" 
  }, 
  {
    "name": "Milton", 
    "lat": "53.0500", 
    "lng": "-2.1420" 
  }, 
  {
    "name": "Glen Parva", 
    "lat": "52.5867", 
    "lng": "-1.1617" 
  }, 
  {
    "name": "Cottingham", 
    "lat": "53.7822", 
    "lng": "-0.4136" 
  }, 
  {
    "name": "Bideford", 
    "lat": "51.0160", 
    "lng": "-4.2090" 
  }, 
  {
    "name": "Oswestry", 
    "lat": "52.8598", 
    "lng": "-3.0538" 
  }, 
  {
    "name": "Mosbrough", 
    "lat": "53.3250", 
    "lng": "-1.3620" 
  }, 
  {
    "name": "Heysham", 
    "lat": "54.0460", 
    "lng": "-2.8940" 
  }, 
  {
    "name": "Golcar", 
    "lat": "53.6378", 
    "lng": "-1.8457" 
  }, 
  {
    "name": "Westbury", 
    "lat": "51.2600", 
    "lng": "-2.1910" 
  }, 
  {
    "name": "Heckmondwike", 
    "lat": "53.7080", 
    "lng": "-1.6700" 
  }, 
  {
    "name": "Clayton", 
    "lat": "53.7820", 
    "lng": "-1.8135" 
  }, 
  {
    "name": "Morriston", 
    "lat": "51.6647", 
    "lng": "-3.9389" 
  }, 
  {
    "name": "High Blantyre", 
    "lat": "55.7930", 
    "lng": "-4.0970" 
  }, 
  {
    "name": "Braunstone", 
    "lat": "52.6160", 
    "lng": "-1.1750" 
  }, 
  {
    "name": "Haslingden", 
    "lat": "53.7050", 
    "lng": "-2.3280" 
  }, 
  {
    "name": "Northallerton", 
    "lat": "54.3378", 
    "lng": "-1.4285" 
  }, 
  {
    "name": "Haslemere", 
    "lat": "51.0900", 
    "lng": "-0.7120" 
  }, 
  {
    "name": "Saint Andrews", 
    "lat": "56.3404", 
    "lng": "-2.7955" 
  }, 
  {
    "name": "Fazakerley", 
    "lat": "53.4676", 
    "lng": "-2.9408" 
  }, 
  {
    "name": "Hatfield", 
    "lat": "53.5800", 
    "lng": "-1.0000" 
  }, 
  {
    "name": "Windlesham", 
    "lat": "51.3600", 
    "lng": "-0.6600" 
  }, 
  {
    "name": "Connahs Quay", 
    "lat": "53.2179", 
    "lng": "-3.0573" 
  }, 
  {
    "name": "Plumstead", 
    "lat": "51.4900", 
    "lng": "0.0900" 
  }, 
  {
    "name": "Ripon", 
    "lat": "54.1380", 
    "lng": "-1.5240" 
  }, 
  {
    "name": "Brixham", 
    "lat": "50.3940", 
    "lng": "-3.5160" 
  }, 
  {
    "name": "Maltby", 
    "lat": "53.4260", 
    "lng": "-1.2100" 
  }, 
  {
    "name": "Banstead", 
    "lat": "51.3220", 
    "lng": "-0.2040" 
  }, 
  {
    "name": "Whickham", 
    "lat": "54.9456", 
    "lng": "-1.6726" 
  }, 
  {
    "name": "Keynsham", 
    "lat": "51.4135", 
    "lng": "-2.4968" 
  }, 
  {
    "name": "Johnstone", 
    "lat": "55.8346", 
    "lng": "-4.5027" 
  }, 
  {
    "name": "Cleckheaton", 
    "lat": "53.7250", 
    "lng": "-1.7190" 
  }, 
  {
    "name": "Newmarket", 
    "lat": "52.2459", 
    "lng": "0.4105" 
  }, 
  {
    "name": "The Mumbles", 
    "lat": "51.5730", 
    "lng": "-3.9992" 
  }, 
  {
    "name": "Biggleswade", 
    "lat": "52.0855", 
    "lng": "-0.2557" 
  }, 
  {
    "name": "Cowley", 
    "lat": "51.7330", 
    "lng": "-1.2150" 
  }, 
  {
    "name": "Hebburn", 
    "lat": "54.9718", 
    "lng": "-1.5128" 
  }, 
  {
    "name": "Enfield Lock", 
    "lat": "51.6686", 
    "lng": "-0.0260" 
  }, 
  {
    "name": "Louth", 
    "lat": "53.3669", 
    "lng": "-0.0061" 
  }, 
  {
    "name": "Buckhaven", 
    "lat": "56.1776", 
    "lng": "-3.0303" 
  }, 
  {
    "name": "Stone", 
    "lat": "52.9000", 
    "lng": "-2.1500" 
  }, 
  {
    "name": "Saint Ives", 
    "lat": "52.3344", 
    "lng": "-0.0761" 
  }, 
  {
    "name": "Denby Dale", 
    "lat": "53.5720", 
    "lng": "-1.6550" 
  }, 
  {
    "name": "Bangor", 
    "lat": "53.2280", 
    "lng": "-4.1280" 
  }, 
  {
    "name": "Birstall", 
    "lat": "53.7343", 
    "lng": "-1.6609" 
  }, 
  {
    "name": "Clitheroe", 
    "lat": "53.8711", 
    "lng": "-2.3916" 
  }, 
  {
    "name": "Queensbury", 
    "lat": "53.7683", 
    "lng": "-1.8453" 
  }, 
  {
    "name": "Stepney", 
    "lat": "51.5152", 
    "lng": "-0.0462" 
  }, 
  {
    "name": "Basford", 
    "lat": "52.9780", 
    "lng": "-1.1690" 
  }, 
  {
    "name": "Saltash", 
    "lat": "50.4080", 
    "lng": "-4.2120" 
  }, 
  {
    "name": "Giffnock", 
    "lat": "55.8051", 
    "lng": "-4.2946" 
  }, 
  {
    "name": "Tyldesley", 
    "lat": "53.5166", 
    "lng": "-2.4667" 
  }, 
  {
    "name": "East Barnet", 
    "lat": "51.6430", 
    "lng": "-0.1630" 
  }, 
  {
    "name": "Upton", 
    "lat": "53.3850", 
    "lng": "-3.0990" 
  }, 
  {
    "name": "Whittlesey", 
    "lat": "52.5580", 
    "lng": "-0.1300" 
  }, 
  {
    "name": "Worcester Park", 
    "lat": "51.3752", 
    "lng": "-0.2390" 
  }, 
  {
    "name": "Porthcawl", 
    "lat": "51.4800", 
    "lng": "-3.6900" 
  }, 
  {
    "name": "East Finchley", 
    "lat": "51.5902", 
    "lng": "-0.1753" 
  }, 
  {
    "name": "Chertsey", 
    "lat": "51.3902", 
    "lng": "-0.5074" 
  }, 
  {
    "name": "Dawlish", 
    "lat": "50.5810", 
    "lng": "-3.4660" 
  }, 
  {
    "name": "Penicuik", 
    "lat": "55.8260", 
    "lng": "-3.2200" 
  }, 
  {
    "name": "Bingley", 
    "lat": "53.8509", 
    "lng": "-1.8380" 
  }, 
  {
    "name": "Adwick le Street", 
    "lat": "53.5677", 
    "lng": "-1.1931" 
  }, 
  {
    "name": "Hayes", 
    "lat": "51.3780", 
    "lng": "0.0192" 
  }, 
  {
    "name": "Addlestone", 
    "lat": "51.3695", 
    "lng": "-0.4901" 
  }, 
  {
    "name": "Royston", 
    "lat": "52.0471", 
    "lng": "-0.0202" 
  }, 
  {
    "name": "Carterton", 
    "lat": "51.7600", 
    "lng": "-1.5900" 
  }, 
  {
    "name": "Bebington", 
    "lat": "53.3500", 
    "lng": "-3.0030" 
  }, 
  {
    "name": "Lymington", 
    "lat": "50.7500", 
    "lng": "-1.5500" 
  }, 
  {
    "name": "Bonnyrigg", 
    "lat": "55.8747", 
    "lng": "-3.1031" 
  }, 
  {
    "name": "Buckley", 
    "lat": "53.1720", 
    "lng": "-3.0860" 
  }, 
  {
    "name": "Ince-in-Makerfield", 
    "lat": "53.5402", 
    "lng": "-2.5990" 
  }, 
  {
    "name": "Nailsea", 
    "lat": "51.4300", 
    "lng": "-2.7600" 
  }, 
  {
    "name": "Thundersley", 
    "lat": "51.5700", 
    "lng": "0.5900" 
  }, 
  {
    "name": "Swinton", 
    "lat": "53.4877", 
    "lng": "-1.3149" 
  }, 
  {
    "name": "Wimborne Minster", 
    "lat": "50.8040", 
    "lng": "-1.9780" 
  }, 
  {
    "name": "West Ham", 
    "lat": "51.5347", 
    "lng": "0.0077" 
  }, 
  {
    "name": "Saffron Walden", 
    "lat": "52.0220", 
    "lng": "0.2430" 
  }, 
  {
    "name": "Stoke Gifford", 
    "lat": "51.5170", 
    "lng": "-2.5480" 
  }, 
  {
    "name": "Shipley", 
    "lat": "53.8330", 
    "lng": "-1.7770" 
  }, 
  {
    "name": "Todmorden", 
    "lat": "53.7130", 
    "lng": "-2.0960" 
  }, 
  {
    "name": "Weybridge", 
    "lat": "51.3620", 
    "lng": "-0.4530" 
  }, 
  {
    "name": "Knaresborough", 
    "lat": "54.0084", 
    "lng": "-1.4670" 
  }, 
  {
    "name": "Helensburgh", 
    "lat": "56.0166", 
    "lng": "-4.7333" 
  }, 
  {
    "name": "Port Glasgow", 
    "lat": "55.9340", 
    "lng": "-4.6906" 
  }, 
  {
    "name": "Seacombe", 
    "lat": "53.4090", 
    "lng": "-3.0290" 
  }, 
  {
    "name": "Baildon", 
    "lat": "53.8510", 
    "lng": "-1.7630" 
  }, 
  {
    "name": "Hemsworth", 
    "lat": "53.6100", 
    "lng": "-1.3500" 
  }, 
  {
    "name": "Perivale", 
    "lat": "51.5383", 
    "lng": "-0.3192" 
  }, 
  {
    "name": "Wombwell", 
    "lat": "53.5160", 
    "lng": "-1.4000" 
  }, 
  {
    "name": "Stanley", 
    "lat": "53.7145", 
    "lng": "-1.4760" 
  }, 
  {
    "name": "Llantrisant", 
    "lat": "51.5423", 
    "lng": "-3.3785" 
  }, 
  {
    "name": "Broxbourne", 
    "lat": "51.7495", 
    "lng": "-0.0216" 
  }, 
  {
    "name": "Hazel Grove", 
    "lat": "53.3750", 
    "lng": "-2.1110" 
  }, 
  {
    "name": "Featherstone", 
    "lat": "53.7000", 
    "lng": "-1.3700" 
  }, 
  {
    "name": "Mexborough", 
    "lat": "53.4992", 
    "lng": "-1.2830" 
  }, 
  {
    "name": "Stapleford", 
    "lat": "52.9290", 
    "lng": "-1.2740" 
  }, 
  {
    "name": "Neston", 
    "lat": "53.2890", 
    "lng": "-3.0740" 
  }, 
  {
    "name": "Bidston", 
    "lat": "53.4020", 
    "lng": "-3.0780" 
  }, 
  {
    "name": "Northenden", 
    "lat": "53.4075", 
    "lng": "-2.2583" 
  }, 
  {
    "name": "Penrith", 
    "lat": "54.6648", 
    "lng": "-2.7548" 
  }, 
  {
    "name": "Chellaston", 
    "lat": "52.8671", 
    "lng": "-1.4384" 
  }, 
  {
    "name": "Palmers Green", 
    "lat": "51.6178", 
    "lng": "-0.1092" 
  }, 
  {
    "name": "Totteridge", 
    "lat": "51.6354", 
    "lng": "-0.2000" 
  }, 
  {
    "name": "Blaydon", 
    "lat": "54.9630", 
    "lng": "-1.7187" 
  }, 
  {
    "name": "New Brighton", 
    "lat": "53.4320", 
    "lng": "-3.0490" 
  }, 
  {
    "name": "Teignmouth", 
    "lat": "50.5515", 
    "lng": "-3.4886" 
  }, 
  {
    "name": "Newport Pagnell", 
    "lat": "52.0870", 
    "lng": "-0.7220" 
  }, 
  {
    "name": "Tredegar", 
    "lat": "51.7776", 
    "lng": "-3.2407" 
  }, 
  {
    "name": "Swallownest", 
    "lat": "53.3623", 
    "lng": "-1.3251" 
  }, 
  {
    "name": "Netherton", 
    "lat": "52.4908", 
    "lng": "-2.0835" 
  }, 
  {
    "name": "Hessle", 
    "lat": "53.7239", 
    "lng": "-0.4319" 
  }, 
  {
    "name": "Winkfield", 
    "lat": "51.4318", 
    "lng": "-0.7096" 
  }, 
  {
    "name": "Petersfield", 
    "lat": "51.0038", 
    "lng": "-0.9345" 
  }, 
  {
    "name": "Larkhall", 
    "lat": "55.7370", 
    "lng": "-3.9720" 
  }, 
  {
    "name": "Sudbury", 
    "lat": "51.5537", 
    "lng": "-0.3199" 
  }, 
  {
    "name": "Wyke", 
    "lat": "53.7369", 
    "lng": "-1.7700" 
  }, 
  {
    "name": "Kew Green", 
    "lat": "51.5308", 
    "lng": "-0.2248" 
  }, 
  {
    "name": "Bromborough", 
    "lat": "53.3360", 
    "lng": "-2.9780" 
  }, 
  {
    "name": "Chislehurst", 
    "lat": "51.4120", 
    "lng": "0.0750" 
  }, 
  {
    "name": "Ilkley", 
    "lat": "53.9250", 
    "lng": "-1.8220" 
  }, 
  {
    "name": "Baguley", 
    "lat": "53.3990", 
    "lng": "-2.2760" 
  }, 
  {
    "name": "Minster", 
    "lat": "51.4210", 
    "lng": "0.8090" 
  }, 
  {
    "name": "Balham", 
    "lat": "51.4434", 
    "lng": "-0.1525" 
  }, 
  {
    "name": "Prestwick", 
    "lat": "55.4956", 
    "lng": "-4.6142" 
  }, 
  {
    "name": "Banbridge", 
    "lat": "54.3430", 
    "lng": "-6.2600" 
  }, 
  {
    "name": "Bodmin", 
    "lat": "50.4660", 
    "lng": "-4.7180" 
  }, 
  {
    "name": "Selby", 
    "lat": "53.7818", 
    "lng": "-1.0703" 
  }, 
  {
    "name": "Conwy", 
    "lat": "53.2800", 
    "lng": "-3.8300" 
  }, 
  {
    "name": "Tilehurst", 
    "lat": "51.4579", 
    "lng": "-1.0406" 
  }, 
  {
    "name": "Troon", 
    "lat": "55.5400", 
    "lng": "-4.6600" 
  }, 
  {
    "name": "Melksham", 
    "lat": "51.3710", 
    "lng": "-2.1380" 
  }, 
  {
    "name": "Wibsey", 
    "lat": "53.7672", 
    "lng": "-1.7728" 
  }, 
  {
    "name": "Great Baddow", 
    "lat": "51.7190", 
    "lng": "0.5070" 
  }, 
  {
    "name": "Farnborough", 
    "lat": "51.3591", 
    "lng": "0.0741" 
  }, 
  {
    "name": "Skipton", 
    "lat": "53.9620", 
    "lng": "-2.0170" 
  }, 
  {
    "name": "Lowton", 
    "lat": "53.4710", 
    "lng": "-2.5690" 
  }, 
  {
    "name": "Burbage", 
    "lat": "52.5277", 
    "lng": "-1.3483" 
  }, 
  {
    "name": "Thorpe Saint Andrew", 
    "lat": "52.6354", 
    "lng": "1.3431" 
  }, 
  {
    "name": "Wellington", 
    "lat": "50.9755", 
    "lng": "-3.2243" 
  }, 
  {
    "name": "Moston", 
    "lat": "53.5156", 
    "lng": "-2.1848" 
  }, 
  {
    "name": "Hythe", 
    "lat": "51.0716", 
    "lng": "1.0840" 
  }, 
  {
    "name": "Chelsfield", 
    "lat": "51.3582", 
    "lng": "0.1278" 
  }, 
  {
    "name": "Uckfield", 
    "lat": "50.9700", 
    "lng": "0.1000" 
  }, 
  {
    "name": "Deysbrook", 
    "lat": "53.4290", 
    "lng": "-2.9340" 
  }, 
  {
    "name": "Bo’ness", 
    "lat": "56.0168", 
    "lng": "-3.6089" 
  }, 
  {
    "name": "Armthorpe", 
    "lat": "53.5352", 
    "lng": "-1.0522" 
  }, 
  {
    "name": "Southgate", 
    "lat": "51.6316", 
    "lng": "-0.1265" 
  }, 
  {
    "name": "Dollis Hill", 
    "lat": "51.5641", 
    "lng": "-0.2341" 
  }, 
  {
    "name": "Wymondham", 
    "lat": "52.5700", 
    "lng": "1.1160" 
  }, 
  {
    "name": "Hetton le Hole", 
    "lat": "54.8208", 
    "lng": "-1.4488" 
  }, 
  {
    "name": "Amersham", 
    "lat": "51.6770", 
    "lng": "-0.6030" 
  }, 
  {
    "name": "West Derby", 
    "lat": "53.4338", 
    "lng": "-2.9070" 
  }, 
  {
    "name": "West Drayton", 
    "lat": "51.5043", 
    "lng": "-0.4646" 
  }, 
  {
    "name": "Conisbrough", 
    "lat": "53.4790", 
    "lng": "-1.2270" 
  }, 
  {
    "name": "Kidbrooke", 
    "lat": "51.4650", 
    "lng": "0.0330" 
  }, 
  {
    "name": "Rock Ferry", 
    "lat": "53.3730", 
    "lng": "-3.0080" 
  }, 
  {
    "name": "Shirley", 
    "lat": "51.3813", 
    "lng": "-0.0543" 
  }, 
  {
    "name": "Hawick", 
    "lat": "55.4220", 
    "lng": "-2.7870" 
  }, 
  {
    "name": "Patcham", 
    "lat": "50.8640", 
    "lng": "-0.1500" 
  }, 
  {
    "name": "West Wickham", 
    "lat": "51.3765", 
    "lng": "-0.0193" 
  }, 
  {
    "name": "Weston", 
    "lat": "53.4130", 
    "lng": "-2.7980" 
  }, 
  {
    "name": "Poynton", 
    "lat": "53.3492", 
    "lng": "-2.1222" 
  }, 
  {
    "name": "Seacroft", 
    "lat": "53.8222", 
    "lng": "-1.4599" 
  }, 
  {
    "name": "Maldon", 
    "lat": "51.7318", 
    "lng": "0.6758" 
  }, 
  {
    "name": "Kearsley", 
    "lat": "53.5300", 
    "lng": "-2.3700" 
  }, 
  {
    "name": "Caerfyrddin", 
    "lat": "51.8560", 
    "lng": "-4.3160" 
  }, 
  {
    "name": "Leyton", 
    "lat": "51.5606", 
    "lng": "-0.0155" 
  }, 
  {
    "name": "Mackworth", 
    "lat": "52.9277", 
    "lng": "-1.5373" 
  }, 
  {
    "name": "Ashtead", 
    "lat": "51.3100", 
    "lng": "-0.2990" 
  }, 
  {
    "name": "Wombourn", 
    "lat": "52.5302", 
    "lng": "-2.1857" 
  }, 
  {
    "name": "Smethwick", 
    "lat": "52.4928", 
    "lng": "-1.9682" 
  }, 
  {
    "name": "Childwall", 
    "lat": "53.3950", 
    "lng": "-2.8810" 
  }, 
  {
    "name": "Cowdenbeath", 
    "lat": "56.1100", 
    "lng": "-3.3500" 
  }, 
  {
    "name": "Forfar", 
    "lat": "56.6442", 
    "lng": "-2.8884" 
  }, 
  {
    "name": "Redruth", 
    "lat": "50.2330", 
    "lng": "-5.2240" 
  }, 
  {
    "name": "Morpeth", 
    "lat": "55.1675", 
    "lng": "-1.6908" 
  }, 
  {
    "name": "Marlow", 
    "lat": "51.5700", 
    "lng": "-0.7800" 
  }, 
  {
    "name": "Pemberton", 
    "lat": "53.5360", 
    "lng": "-2.6738" 
  }, 
  {
    "name": "Verwood", 
    "lat": "50.8815", 
    "lng": "-1.8785" 
  }, 
  {
    "name": "Bourne", 
    "lat": "52.7684", 
    "lng": "-0.3775" 
  }, 
  {
    "name": "Ringwood", 
    "lat": "50.8500", 
    "lng": "-1.7800" 
  }, 
  {
    "name": "Brierley Hill", 
    "lat": "52.4795", 
    "lng": "-2.1245" 
  }, 
  {
    "name": "Streetly", 
    "lat": "52.5770", 
    "lng": "-1.8840" 
  }, 
  {
    "name": "Milford Haven", 
    "lat": "51.7142", 
    "lng": "-5.0427" 
  }, 
  {
    "name": "Bickley", 
    "lat": "51.4003", 
    "lng": "0.0466" 
  }, 
  {
    "name": "North Hykeham", 
    "lat": "53.1819", 
    "lng": "-0.5849" 
  }, 
  {
    "name": "Rustington", 
    "lat": "50.8102", 
    "lng": "-0.5052" 
  }, 
  {
    "name": "Eastham", 
    "lat": "53.3130", 
    "lng": "-2.9620" 
  }, 
  {
    "name": "Cosham", 
    "lat": "50.8424", 
    "lng": "-1.0660" 
  }, 
  {
    "name": "Kidlington", 
    "lat": "51.8230", 
    "lng": "-1.2910" 
  }, 
  {
    "name": "Knottingley", 
    "lat": "53.7050", 
    "lng": "-1.2490" 
  }, 
  {
    "name": "Otley", 
    "lat": "53.9050", 
    "lng": "-1.6870" 
  }, 
  {
    "name": "Rottingdean", 
    "lat": "50.8150", 
    "lng": "-0.0650" 
  }, 
  {
    "name": "Allestree", 
    "lat": "52.9519", 
    "lng": "-1.4856" 
  }, 
  {
    "name": "Middlewich", 
    "lat": "53.1920", 
    "lng": "-2.4430" 
  }, 
  {
    "name": "Bredbury", 
    "lat": "53.4200", 
    "lng": "-2.1130" 
  }, 
  {
    "name": "Bridport", 
    "lat": "50.7336", 
    "lng": "-2.7584" 
  }, 
  {
    "name": "Rossington", 
    "lat": "53.4759", 
    "lng": "-1.0613" 
  }, 
  {
    "name": "Hilsea", 
    "lat": "50.8300", 
    "lng": "-1.0700" 
  }, 
  {
    "name": "Clifton", 
    "lat": "53.9721", 
    "lng": "-1.0979" 
  }, 
  {
    "name": "Milngavie", 
    "lat": "55.9421", 
    "lng": "-4.3137" 
  }, 
  {
    "name": "Shepshed", 
    "lat": "52.7711", 
    "lng": "-1.2951" 
  }, 
  {
    "name": "Ystrad Mynach", 
    "lat": "51.6419", 
    "lng": "-3.2405" 
  }, 
  {
    "name": "Little Hulton", 
    "lat": "53.5300", 
    "lng": "-2.4180" 
  }, 
  {
    "name": "Alexandria", 
    "lat": "55.9800", 
    "lng": "-4.5800" 
  }, 
  {
    "name": "Rosyth", 
    "lat": "56.0339", 
    "lng": "-3.4323" 
  }, 
  {
    "name": "Chaddesden", 
    "lat": "52.9301", 
    "lng": "-1.4383" 
  }, 
  {
    "name": "Heswall", 
    "lat": "53.3280", 
    "lng": "-3.0990" 
  }, 
  {
    "name": "Amblecote", 
    "lat": "52.4600", 
    "lng": "-2.1600" 
  }, 
  {
    "name": "Saint Budeaux", 
    "lat": "50.4033", 
    "lng": "-4.1856" 
  }, 
  {
    "name": "Egg Buckland", 
    "lat": "50.4006", 
    "lng": "-4.1136" 
  }, 
  {
    "name": "Bacup", 
    "lat": "53.7040", 
    "lng": "-2.1990" 
  }, 
  {
    "name": "Ampthill", 
    "lat": "52.0263", 
    "lng": "-0.4906" 
  }, 
  {
    "name": "Shirebrook", 
    "lat": "53.2048", 
    "lng": "-1.2197" 
  }, 
  {
    "name": "Carluke", 
    "lat": "55.7337", 
    "lng": "-3.8343" 
  }, 
  {
    "name": "Standish", 
    "lat": "53.5860", 
    "lng": "-2.6640" 
  }, 
  {
    "name": "West Boldon", 
    "lat": "54.9447", 
    "lng": "-1.4409" 
  }, 
  {
    "name": "Dingle", 
    "lat": "53.3774", 
    "lng": "-2.9613" 
  }, 
  {
    "name": "Whitby", 
    "lat": "54.4858", 
    "lng": "-0.6206" 
  }, 
  {
    "name": "Walsall Wood", 
    "lat": "52.6277", 
    "lng": "-1.9301" 
  }, 
  {
    "name": "Southwick", 
    "lat": "50.8360", 
    "lng": "-0.2390" 
  }, 
  {
    "name": "Knutsford", 
    "lat": "53.3025", 
    "lng": "-2.3708" 
  }, 
  {
    "name": "Broughty Ferry", 
    "lat": "56.4672", 
    "lng": "-2.8699" 
  }, 
  {
    "name": "Hamworthy", 
    "lat": "50.7207", 
    "lng": "-2.0109" 
  }, 
  {
    "name": "Fraserburgh", 
    "lat": "57.6930", 
    "lng": "-2.0050" 
  }, 
  {
    "name": "Wollaston", 
    "lat": "52.4619", 
    "lng": "-2.1663" 
  }, 
  {
    "name": "Uttoxeter", 
    "lat": "52.8980", 
    "lng": "-1.8600" 
  }, 
  {
    "name": "Great Driffield", 
    "lat": "54.0050", 
    "lng": "-0.4380" 
  }, 
  {
    "name": "Chard", 
    "lat": "50.8728", 
    "lng": "-2.9587" 
  }, 
  {
    "name": "Goodmayes", 
    "lat": "51.5584", 
    "lng": "0.1119" 
  }, 
  {
    "name": "Pendlebury", 
    "lat": "53.5075", 
    "lng": "-2.3154" 
  }, 
  {
    "name": "Sudbury", 
    "lat": "52.0417", 
    "lng": "0.7282" 
  }, 
  {
    "name": "Milnrow", 
    "lat": "53.6101", 
    "lng": "-2.1111" 
  }, 
  {
    "name": "Holborn", 
    "lat": "51.5172", 
    "lng": "-0.1182" 
  }, 
  {
    "name": "Brackley", 
    "lat": "52.0320", 
    "lng": "-1.1470" 
  }, 
  {
    "name": "Midsomer Norton", 
    "lat": "51.2842", 
    "lng": "-2.4817" 
  }, 
  {
    "name": "Corsham", 
    "lat": "51.4300", 
    "lng": "-2.1900" 
  }, 
  {
    "name": "Cumnock", 
    "lat": "55.4529", 
    "lng": "-4.2638" 
  }, 
  {
    "name": "Gornalwood", 
    "lat": "52.5230", 
    "lng": "-2.1240" 
  }, 
  {
    "name": "Yiewsley", 
    "lat": "51.5130", 
    "lng": "-0.4710" 
  }, 
  {
    "name": "Shenley Church End", 
    "lat": "52.0220", 
    "lng": "-0.7880" 
  }, 
  {
    "name": "Flint", 
    "lat": "53.2482", 
    "lng": "-3.1358" 
  }, 
  {
    "name": "Woolton", 
    "lat": "53.3740", 
    "lng": "-2.8650" 
  }, 
  {
    "name": "Leagrave", 
    "lat": "51.9030", 
    "lng": "-0.4660" 
  }, 
  {
    "name": "Cliftonville", 
    "lat": "51.3881", 
    "lng": "1.4046" 
  }, 
  {
    "name": "Buckingham", 
    "lat": "51.9950", 
    "lng": "-0.9860" 
  }, 
  {
    "name": "Chilwell", 
    "lat": "52.9160", 
    "lng": "-1.2350" 
  }, 
  {
    "name": "Syston", 
    "lat": "52.7000", 
    "lng": "-1.0800" 
  }, 
  {
    "name": "Little Lever", 
    "lat": "53.5630", 
    "lng": "-2.3690" 
  }, 
  {
    "name": "Sanderstead", 
    "lat": "51.3358", 
    "lng": "-0.0818" 
  }, 
  {
    "name": "Chalfont Saint Peter", 
    "lat": "51.6070", 
    "lng": "-0.5560" 
  }, 
  {
    "name": "Ainsdale", 
    "lat": "53.6021", 
    "lng": "-3.0405" 
  }, 
  {
    "name": "Flitwick", 
    "lat": "52.0038", 
    "lng": "-0.4966" 
  }, 
  {
    "name": "Brownhills", 
    "lat": "52.6470", 
    "lng": "-1.9330" 
  }, 
  {
    "name": "Hornsey", 
    "lat": "51.5870", 
    "lng": "-0.1180" 
  }, 
  {
    "name": "Sutton on Hull", 
    "lat": "53.7806", 
    "lng": "-0.3047" 
  }, 
  {
    "name": "Horndean", 
    "lat": "50.9136", 
    "lng": "-0.9961" 
  }, 
  {
    "name": "North Walsham", 
    "lat": "52.8210", 
    "lng": "1.3870" 
  }, 
  {
    "name": "Galashiels", 
    "lat": "55.6194", 
    "lng": "-2.8033" 
  }, 
  {
    "name": "Selston", 
    "lat": "53.0700", 
    "lng": "-1.3000" 
  }, 
  {
    "name": "Forres", 
    "lat": "57.6080", 
    "lng": "-3.6200" 
  }, 
  {
    "name": "Wordsley", 
    "lat": "52.4830", 
    "lng": "-2.1500" 
  }, 
  {
    "name": "Tranent", 
    "lat": "55.9450", 
    "lng": "-2.9540" 
  }, 
  {
    "name": "Sidmouth", 
    "lat": "50.6800", 
    "lng": "-3.2390" 
  }, 
  {
    "name": "Croxley Green", 
    "lat": "51.6470", 
    "lng": "-0.4450" 
  }, 
  {
    "name": "Mablethorpe", 
    "lat": "53.3409", 
    "lng": "0.2610" 
  }, 
  {
    "name": "Abergavenny", 
    "lat": "51.8240", 
    "lng": "-3.0167" 
  }, 
  {
    "name": "Wolverton", 
    "lat": "52.0626", 
    "lng": "-0.8102" 
  }, 
  {
    "name": "Costessey", 
    "lat": "52.6602", 
    "lng": "1.2161" 
  }, 
  {
    "name": "Barton upon Irwell", 
    "lat": "53.4760", 
    "lng": "-2.3600" 
  }, 
  {
    "name": "Bickenhill", 
    "lat": "52.4390", 
    "lng": "-1.7250" 
  }, 
  {
    "name": "Tilbury", 
    "lat": "51.4606", 
    "lng": "0.3582" 
  }, 
  {
    "name": "Chigwell", 
    "lat": "51.6225", 
    "lng": "0.0723" 
  }, 
  {
    "name": "Blunsdon Saint Andrew", 
    "lat": "51.6100", 
    "lng": "-1.7900" 
  }, 
  {
    "name": "Hersham", 
    "lat": "51.3681", 
    "lng": "-0.4008" 
  }, 
  {
    "name": "Spondon", 
    "lat": "52.9200", 
    "lng": "-1.4010" 
  }, 
  {
    "name": "Ashby de la Zouch", 
    "lat": "52.7460", 
    "lng": "-1.4760" 
  }, 
  {
    "name": "Coseley", 
    "lat": "52.5500", 
    "lng": "-2.0830" 
  }, 
  {
    "name": "Ovenden", 
    "lat": "53.7432", 
    "lng": "-1.8779" 
  }, 
  {
    "name": "Chepstow", 
    "lat": "51.6420", 
    "lng": "-2.6750" 
  }, 
  {
    "name": "Lymm", 
    "lat": "53.3834", 
    "lng": "-2.4750" 
  }, 
  {
    "name": "Lye", 
    "lat": "52.4590", 
    "lng": "-2.1160" 
  }, 
  {
    "name": "Thornbury", 
    "lat": "51.6094", 
    "lng": "-2.5249" 
  }, 
  {
    "name": "Dalkeith", 
    "lat": "55.8958", 
    "lng": "-3.0583" 
  }, 
  {
    "name": "Tonyrefail", 
    "lat": "51.5840", 
    "lng": "-3.4306" 
  }, 
  {
    "name": "New Mills", 
    "lat": "53.3670", 
    "lng": "-2.0070" 
  }, 
  {
    "name": "Thatto Heath", 
    "lat": "53.4352", 
    "lng": "-2.7481" 
  }, 
  {
    "name": "Harrow on the Hill", 
    "lat": "51.5655", 
    "lng": "-0.3327" 
  }, 
  {
    "name": "Newhaven", 
    "lat": "50.8000", 
    "lng": "0.0600" 
  }, 
  {
    "name": "Caldicot", 
    "lat": "51.5910", 
    "lng": "-2.7492" 
  }, 
  {
    "name": "Olton", 
    "lat": "52.4377", 
    "lng": "-1.8058" 
  }, 
  {
    "name": "Cheadle", 
    "lat": "52.9849", 
    "lng": "-1.9865" 
  }, 
  {
    "name": "Bamber Bridge", 
    "lat": "53.7281", 
    "lng": "-2.6606" 
  }, 
  {
    "name": "Huntington", 
    "lat": "53.9926", 
    "lng": "-1.0430" 
  }, 
  {
    "name": "Sedgley", 
    "lat": "52.5400", 
    "lng": "-2.1230" 
  }, 
  {
    "name": "Beaconsfield", 
    "lat": "51.6009", 
    "lng": "-0.6347" 
  }, 
  {
    "name": "Bridgnorth", 
    "lat": "52.5350", 
    "lng": "-2.4195" 
  }, 
  {
    "name": "Fenton", 
    "lat": "52.9977", 
    "lng": "-2.1578" 
  }, 
  {
    "name": "Berwick-Upon-Tweed", 
    "lat": "55.7710", 
    "lng": "-2.0070" 
  }, 
  {
    "name": "Hwlffordd", 
    "lat": "51.8000", 
    "lng": "-4.9700" 
  }, 
  {
    "name": "Wells", 
    "lat": "51.2090", 
    "lng": "-2.6470" 
  }, 
  {
    "name": "Broxburn", 
    "lat": "55.9340", 
    "lng": "-3.4710" 
  }, 
  {
    "name": "Warsop", 
    "lat": "53.2000", 
    "lng": "-1.1500" 
  }, 
  {
    "name": "Minehead", 
    "lat": "51.2038", 
    "lng": "-3.4738" 
  }, 
  {
    "name": "Montrose", 
    "lat": "56.7080", 
    "lng": "-2.4670" 
  }, 
  {
    "name": "Broughton Astley", 
    "lat": "52.5278", 
    "lng": "-1.2275" 
  }, 
  {
    "name": "Sheerness", 
    "lat": "51.4410", 
    "lng": "0.7600" 
  }, 
  {
    "name": "Halstead", 
    "lat": "51.9451", 
    "lng": "0.6411" 
  }, 
  {
    "name": "Bargoed", 
    "lat": "51.6900", 
    "lng": "-3.2400" 
  }, 
  {
    "name": "Rushall", 
    "lat": "52.6110", 
    "lng": "-1.9570" 
  }, 
  {
    "name": "Snaresbrook", 
    "lat": "51.5870", 
    "lng": "0.0146" 
  }, 
  {
    "name": "Sandown", 
    "lat": "50.6551", 
    "lng": "-1.1541" 
  }, 
  {
    "name": "Hoyland Nether", 
    "lat": "53.4985", 
    "lng": "-1.4406" 
  }, 
  {
    "name": "Ivybridge", 
    "lat": "50.3890", 
    "lng": "-3.9210" 
  }, 
  {
    "name": "Torton", 
    "lat": "52.4522", 
    "lng": "-2.1606" 
  }, 
  {
    "name": "Trentham", 
    "lat": "52.9663", 
    "lng": "-2.1899" 
  }, 
  {
    "name": "Hexham", 
    "lat": "54.9710", 
    "lng": "-2.1010" 
  }, 
  {
    "name": "Honiton", 
    "lat": "50.8000", 
    "lng": "-3.1900" 
  }, 
  {
    "name": "Wath upon Dearne", 
    "lat": "53.5022", 
    "lng": "-1.3402" 
  }, 
  {
    "name": "Street", 
    "lat": "51.1235", 
    "lng": "-2.7381" 
  }, 
  {
    "name": "Oswaldtwistle", 
    "lat": "53.7430", 
    "lng": "-2.3930" 
  }, 
  {
    "name": "Alsager", 
    "lat": "53.0961", 
    "lng": "-2.3048" 
  }, 
  {
    "name": "Market Drayton", 
    "lat": "52.9044", 
    "lng": "-2.4848" 
  }, 
  {
    "name": "Gillingham", 
    "lat": "51.0375", 
    "lng": "-2.2748" 
  }, 
  {
    "name": "Hackney", 
    "lat": "51.5414", 
    "lng": "-0.0266" 
  }, 
  {
    "name": "Tring", 
    "lat": "51.7962", 
    "lng": "-0.6592" 
  }, 
  {
    "name": "Devizes", 
    "lat": "51.3530", 
    "lng": "-1.9940" 
  }, 
  {
    "name": "Sowerby Bridge", 
    "lat": "53.7100", 
    "lng": "-1.9100" 
  }, 
  {
    "name": "Risca", 
    "lat": "51.6080", 
    "lng": "-3.0910" 
  }, 
  {
    "name": "Leominster", 
    "lat": "52.2282", 
    "lng": "-2.7385" 
  }, 
  {
    "name": "Ulverston", 
    "lat": "54.1930", 
    "lng": "-3.0900" 
  }, 
  {
    "name": "Elland", 
    "lat": "53.6830", 
    "lng": "-1.8400" 
  }, 
  {
    "name": "Prudhoe", 
    "lat": "54.9610", 
    "lng": "-1.8490" 
  }, 
  {
    "name": "Bolsover", 
    "lat": "53.2304", 
    "lng": "-1.2875" 
  }, 
  {
    "name": "Bryn", 
    "lat": "53.4990", 
    "lng": "-2.6570" 
  }, 
  {
    "name": "Sandy", 
    "lat": "52.1310", 
    "lng": "-0.2970" 
  }, 
  {
    "name": "Henley on Thames", 
    "lat": "51.5360", 
    "lng": "-0.8980" 
  }, 
  {
    "name": "Ascot", 
    "lat": "51.4084", 
    "lng": "-0.6707" 
  }, 
  {
    "name": "Sunninghill", 
    "lat": "51.4050", 
    "lng": "-0.6560" 
  }, 
  {
    "name": "Stonehaven", 
    "lat": "56.9640", 
    "lng": "-2.2110" 
  }, 
  {
    "name": "Abertillery", 
    "lat": "51.7300", 
    "lng": "-3.1300" 
  }, 
  {
    "name": "Wallingford", 
    "lat": "51.5990", 
    "lng": "-1.1250" 
  }, 
  {
    "name": "Thame", 
    "lat": "51.7500", 
    "lng": "-0.9700" 
  }, 
  {
    "name": "Belgrave", 
    "lat": "52.6566", 
    "lng": "-1.1262" 
  }, 
  {
    "name": "Wanstead", 
    "lat": "51.5778", 
    "lng": "0.0286" 
  }, 
  {
    "name": "Blundellsands", 
    "lat": "53.4800", 
    "lng": "-3.0500" 
  }, 
  {
    "name": "Brislington", 
    "lat": "51.4316", 
    "lng": "-2.5439" 
  }, 
  {
    "name": "Gourock", 
    "lat": "55.9538", 
    "lng": "-4.8173" 
  }, 
  {
    "name": "Pelsall", 
    "lat": "52.6310", 
    "lng": "-1.9720" 
  }, 
  {
    "name": "Tadley", 
    "lat": "51.3506", 
    "lng": "-1.1376" 
  }, 
  {
    "name": "Culcheth", 
    "lat": "53.4517", 
    "lng": "-2.5218" 
  }, 
  {
    "name": "Sandridge", 
    "lat": "51.7808", 
    "lng": "-0.3038" 
  }, 
  {
    "name": "Holyhead", 
    "lat": "53.3090", 
    "lng": "-4.6330" 
  }, 
  {
    "name": "Haydock", 
    "lat": "53.4678", 
    "lng": "-2.6609" 
  }, 
  {
    "name": "Carnoustie", 
    "lat": "56.5005", 
    "lng": "-2.7147" 
  }, 
  {
    "name": "Wealdstone", 
    "lat": "51.5957", 
    "lng": "-0.3352" 
  }, 
  {
    "name": "Greetland", 
    "lat": "53.6869", 
    "lng": "-1.8714" 
  }, 
  {
    "name": "Stainland", 
    "lat": "53.6728", 
    "lng": "-1.8805" 
  }, 
  {
    "name": "Newport", 
    "lat": "52.7691", 
    "lng": "-2.3787" 
  }, 
  {
    "name": "Royal Wootton Bassett", 
    "lat": "51.5330", 
    "lng": "-1.9000" 
  }, 
  {
    "name": "Buckhurst Hill", 
    "lat": "51.6320", 
    "lng": "0.0360" 
  }, 
  {
    "name": "Harrow Weald", 
    "lat": "51.6040", 
    "lng": "-0.3390" 
  }, 
  {
    "name": "Newtown", 
    "lat": "52.5132", 
    "lng": "-3.3141" 
  }, 
  {
    "name": "Knowsley", 
    "lat": "53.4498", 
    "lng": "-2.8501" 
  }, 
  {
    "name": "Wantage", 
    "lat": "51.5890", 
    "lng": "-1.4270" 
  }, 
  {
    "name": "Leatherhead", 
    "lat": "51.2950", 
    "lng": "-0.3290" 
  }, 
  {
    "name": "Burslem", 
    "lat": "53.0426", 
    "lng": "-2.1879" 
  }, 
  {
    "name": "Oxted", 
    "lat": "51.2570", 
    "lng": "-0.0060" 
  }, 
  {
    "name": "Hipperholme", 
    "lat": "53.7258", 
    "lng": "-1.8120" 
  }, 
  {
    "name": "Chorleywood", 
    "lat": "51.6500", 
    "lng": "-0.5100" 
  }, 
  {
    "name": "Stanwell", 
    "lat": "51.4570", 
    "lng": "-0.4715" 
  }, 
  {
    "name": "Astley", 
    "lat": "53.5008", 
    "lng": "-2.4454" 
  }, 
  {
    "name": "Burtonwood", 
    "lat": "53.4302", 
    "lng": "-2.6614" 
  }, 
  {
    "name": "Maryport", 
    "lat": "54.7128", 
    "lng": "-3.4926" 
  }, 
  {
    "name": "Saltcoats", 
    "lat": "55.6352", 
    "lng": "-4.7896" 
  }, 
  {
    "name": "Holywood", 
    "lat": "54.6360", 
    "lng": "-5.8450" 
  }, 
  {
    "name": "Kingsnorth", 
    "lat": "51.1178", 
    "lng": "0.8615" 
  }, 
  {
    "name": "Cranleigh", 
    "lat": "51.1363", 
    "lng": "-0.4784" 
  }, 
  {
    "name": "Largs", 
    "lat": "55.7940", 
    "lng": "-4.8670" 
  }, 
  {
    "name": "Crayford", 
    "lat": "51.4491", 
    "lng": "0.1812" 
  }, 
  {
    "name": "Saint Ives", 
    "lat": "50.2110", 
    "lng": "-5.4800" 
  }, 
  {
    "name": "Castle Bromwich", 
    "lat": "52.5050", 
    "lng": "-1.7856" 
  }, 
  {
    "name": "Dorking", 
    "lat": "51.2340", 
    "lng": "-0.3318" 
  }, 
  {
    "name": "Prescot", 
    "lat": "53.4220", 
    "lng": "-2.8140" 
  }, 
  {
    "name": "Ilfracombe", 
    "lat": "51.2080", 
    "lng": "-4.1200" 
  }, 
  {
    "name": "Wootton", 
    "lat": "52.2007", 
    "lng": "-0.8857" 
  }, 
  {
    "name": "Helston", 
    "lat": "50.1000", 
    "lng": "-5.2700" 
  }, 
  {
    "name": "Shoeburyness", 
    "lat": "51.5316", 
    "lng": "0.7978" 
  }, 
  {
    "name": "Eckington", 
    "lat": "53.3080", 
    "lng": "-1.3643" 
  }, 
  {
    "name": "Aylestone", 
    "lat": "52.6040", 
    "lng": "-1.1540" 
  }, 
  {
    "name": "Dorridge", 
    "lat": "52.3720", 
    "lng": "-1.7554" 
  }, 
  {
    "name": "Evington", 
    "lat": "52.6210", 
    "lng": "-1.0720" 
  }, 
  {
    "name": "Southborough", 
    "lat": "51.1598", 
    "lng": "0.2652" 
  }, 
  {
    "name": "Iver", 
    "lat": "51.5210", 
    "lng": "-0.5070" 
  }, 
  {
    "name": "Barton upon Humber", 
    "lat": "53.6833", 
    "lng": "-0.4500" 
  }, 
  {
    "name": "Timperley", 
    "lat": "53.3870", 
    "lng": "-2.3280" 
  }, 
  {
    "name": "Whitchurch", 
    "lat": "51.4064", 
    "lng": "-2.5594" 
  }, 
  {
    "name": "Great Wyrley", 
    "lat": "52.6593", 
    "lng": "-2.0102" 
  }, 
  {
    "name": "Epping", 
    "lat": "51.7004", 
    "lng": "0.1087" 
  }, 
  {
    "name": "Bottesford", 
    "lat": "53.5521", 
    "lng": "-0.6714" 
  }, 
  {
    "name": "Tavistock", 
    "lat": "50.5450", 
    "lng": "-4.1500" 
  }, 
  {
    "name": "Churchdown", 
    "lat": "51.8800", 
    "lng": "-2.1700" 
  }, 
  {
    "name": "Cudworth", 
    "lat": "53.5784", 
    "lng": "-1.4149" 
  }, 
  {
    "name": "Hellesdon", 
    "lat": "52.6485", 
    "lng": "1.2509" 
  }, 
  {
    "name": "Highgate", 
    "lat": "51.5716", 
    "lng": "-0.1448" 
  }, 
  {
    "name": "Ardrossan", 
    "lat": "55.6432", 
    "lng": "-4.8097" 
  }, 
  {
    "name": "Oakham", 
    "lat": "52.6705", 
    "lng": "-0.7333" 
  }, 
  {
    "name": "Ponteland", 
    "lat": "55.0480", 
    "lng": "-1.7470" 
  }, 
  {
    "name": "Mossley", 
    "lat": "53.5147", 
    "lng": "-2.0387" 
  }, 
  {
    "name": "Hollinwood", 
    "lat": "53.5183", 
    "lng": "-2.1440" 
  }, 
  {
    "name": "Inverurie", 
    "lat": "57.2800", 
    "lng": "-2.3800" 
  }, 
  {
    "name": "Soham", 
    "lat": "52.3338", 
    "lng": "0.3361" 
  }, 
  {
    "name": "Rainhill", 
    "lat": "53.4157", 
    "lng": "-2.7625" 
  }, 
  {
    "name": "Stranraer", 
    "lat": "54.9020", 
    "lng": "-5.0270" 
  }, 
  {
    "name": "Earlestown", 
    "lat": "53.4500", 
    "lng": "-2.6500" 
  }, 
  {
    "name": "Great Harwood", 
    "lat": "53.7860", 
    "lng": "-2.4080" 
  }, 
  {
    "name": "Methil", 
    "lat": "56.1844", 
    "lng": "-3.0223" 
  }, 
  {
    "name": "Wooburn", 
    "lat": "51.5810", 
    "lng": "-0.6910" 
  }, 
  {
    "name": "Flixton", 
    "lat": "53.4470", 
    "lng": "-2.3910" 
  }, 
  {
    "name": "Parkstone", 
    "lat": "50.7100", 
    "lng": "-1.9500" 
  }, 
  {
    "name": "Barnoldswick", 
    "lat": "53.9147", 
    "lng": "-2.1895" 
  }, 
  {
    "name": "Stannington", 
    "lat": "53.3960", 
    "lng": "-1.5360" 
  }, 
  {
    "name": "Selsey", 
    "lat": "50.7350", 
    "lng": "-0.7898" 
  }, 
  {
    "name": "Royston", 
    "lat": "53.6100", 
    "lng": "-1.4500" 
  }, 
  {
    "name": "Amesbury", 
    "lat": "51.1700", 
    "lng": "-1.7700" 
  }, 
  {
    "name": "Ross on Wye", 
    "lat": "51.9140", 
    "lng": "-2.5870" 
  }, 
  {
    "name": "Desborough", 
    "lat": "52.4398", 
    "lng": "-0.8172" 
  }, 
  {
    "name": "Hatch End", 
    "lat": "51.6010", 
    "lng": "-0.3743" 
  }, 
  {
    "name": "Darfield", 
    "lat": "53.5380", 
    "lng": "-1.3812" 
  }, 
  {
    "name": "Knowle", 
    "lat": "52.3881", 
    "lng": "-1.7318" 
  }, 
  {
    "name": "Aylesford", 
    "lat": "51.3033", 
    "lng": "0.4796" 
  }, 
  {
    "name": "Cookstown", 
    "lat": "54.6470", 
    "lng": "-6.7450" 
  }, 
  {
    "name": "North Tidworth", 
    "lat": "51.2370", 
    "lng": "-1.6640" 
  }, 
  {
    "name": "Longbenton", 
    "lat": "55.0000", 
    "lng": "-1.5700" 
  }, 
  {
    "name": "Bishops Cleeve", 
    "lat": "51.9470", 
    "lng": "-2.0610" 
  }, 
  {
    "name": "Blandford Forum", 
    "lat": "50.8560", 
    "lng": "-2.1648" 
  }, 
  {
    "name": "Englefield Green", 
    "lat": "51.4301", 
    "lng": "-0.5699" 
  }, 
  {
    "name": "Felton", 
    "lat": "51.5100", 
    "lng": "-2.5740" 
  }, 
  {
    "name": "Kingsteignton", 
    "lat": "50.5458", 
    "lng": "-3.5962" 
  }, 
  {
    "name": "Abergele", 
    "lat": "53.2800", 
    "lng": "-3.5800" 
  }, 
  {
    "name": "Southwick", 
    "lat": "54.9193", 
    "lng": "-1.4062" 
  }, 
  {
    "name": "Whitburn", 
    "lat": "55.8621", 
    "lng": "-3.6872" 
  }, 
  {
    "name": "Monmouth", 
    "lat": "51.8100", 
    "lng": "-2.7200" 
  }, 
  {
    "name": "Ryhope", 
    "lat": "54.8679", 
    "lng": "-1.3698" 
  }, 
  {
    "name": "Fort William", 
    "lat": "56.8198", 
    "lng": "-5.1052" 
  }, 
  {
    "name": "Holbeach", 
    "lat": "52.8037", 
    "lng": "0.0154" 
  }, 
  {
    "name": "Chatteris", 
    "lat": "52.4560", 
    "lng": "0.0550" 
  }, 
  {
    "name": "Eccleston", 
    "lat": "53.4539", 
    "lng": "-2.7748" 
  }, 
  {
    "name": "Scartho", 
    "lat": "53.5399", 
    "lng": "-0.0926" 
  }, 
  {
    "name": "Cowes", 
    "lat": "50.7595", 
    "lng": "-1.3002" 
  }, 
  {
    "name": "Charlton Kings", 
    "lat": "51.8877", 
    "lng": "-2.0413" 
  }, 
  {
    "name": "Ickenham", 
    "lat": "51.5580", 
    "lng": "-0.4484" 
  }, 
  {
    "name": "Shepton Mallet", 
    "lat": "51.1930", 
    "lng": "-2.5460" 
  }, 
  {
    "name": "Prestonpans", 
    "lat": "55.9597", 
    "lng": "-2.9610" 
  }, 
  {
    "name": "Mildenhall", 
    "lat": "52.3446", 
    "lng": "0.5089" 
  }, 
  {
    "name": "Broadstone", 
    "lat": "50.7605", 
    "lng": "-1.9950" 
  }, 
  {
    "name": "Spitalfields", 
    "lat": "51.5166", 
    "lng": "-0.0750" 
  }, 
  {
    "name": "Cheam", 
    "lat": "51.3600", 
    "lng": "-0.2100" 
  }, 
  {
    "name": "Ludlow", 
    "lat": "52.3680", 
    "lng": "-2.7180" 
  }, 
  {
    "name": "Appleton", 
    "lat": "53.3508", 
    "lng": "-2.5441" 
  }, 
  {
    "name": "Lemington", 
    "lat": "54.9720", 
    "lng": "-1.7230" 
  }, 
  {
    "name": "Snodland", 
    "lat": "51.3280", 
    "lng": "0.4467" 
  }, 
  {
    "name": "Castleton", 
    "lat": "53.5907", 
    "lng": "-2.1737" 
  }, 
  {
    "name": "Rogerstone", 
    "lat": "51.5906", 
    "lng": "-3.0537" 
  }, 
  {
    "name": "Hucclecote", 
    "lat": "51.8500", 
    "lng": "-2.1800" 
  }, 
  {
    "name": "Great Missenden", 
    "lat": "51.7042", 
    "lng": "-0.7078" 
  }, 
  {
    "name": "Corfe Mullen", 
    "lat": "50.7701", 
    "lng": "-2.0175" 
  }, 
  {
    "name": "Beccles", 
    "lat": "52.4580", 
    "lng": "1.5630" 
  }, 
  {
    "name": "Padiham", 
    "lat": "53.7970", 
    "lng": "-2.3110" 
  }, 
  {
    "name": "Worsley", 
    "lat": "53.5093", 
    "lng": "-2.3845" 
  }, 
  {
    "name": "Warfield", 
    "lat": "51.4420", 
    "lng": "-0.7370" 
  }, 
  {
    "name": "Mold", 
    "lat": "53.1660", 
    "lng": "-3.1330" 
  }, 
  {
    "name": "Chapeltown", 
    "lat": "53.4620", 
    "lng": "-1.4660" 
  }, 
  {
    "name": "Southwater", 
    "lat": "51.0238", 
    "lng": "-0.3526" 
  }, 
  {
    "name": "Horbury", 
    "lat": "53.6595", 
    "lng": "-1.5566" 
  }, 
  {
    "name": "Shevington", 
    "lat": "53.5720", 
    "lng": "-2.6900" 
  }, 
  {
    "name": "Downham Market", 
    "lat": "52.6000", 
    "lng": "0.3900" 
  }, 
  {
    "name": "Euxton", 
    "lat": "53.6620", 
    "lng": "-2.6740" 
  }, 
  {
    "name": "Marton", 
    "lat": "54.5406", 
    "lng": "-1.2124" 
  }, 
  {
    "name": "Shildon", 
    "lat": "54.6300", 
    "lng": "-1.6500" 
  }, 
  {
    "name": "Bishopstoke", 
    "lat": "50.9679", 
    "lng": "-1.3278" 
  }, 
  {
    "name": "Aberaman", 
    "lat": "51.7000", 
    "lng": "-3.4333" 
  }, 
  {
    "name": "Birchington", 
    "lat": "51.3770", 
    "lng": "1.3050" 
  }, 
  {
    "name": "Handsworth", 
    "lat": "53.3700", 
    "lng": "-1.4000" 
  }, 
  {
    "name": "Haddington", 
    "lat": "55.9580", 
    "lng": "-2.7740" 
  }, 
  {
    "name": "Aldenham", 
    "lat": "51.6723", 
    "lng": "-0.3546" 
  }, 
  {
    "name": "Baldock", 
    "lat": "51.9900", 
    "lng": "-0.1900" 
  }, 
  {
    "name": "Worth", 
    "lat": "51.1130", 
    "lng": "-0.1470" 
  }, 
  {
    "name": "Stocksbridge", 
    "lat": "53.4780", 
    "lng": "-1.5880" 
  }, 
  {
    "name": "Kilsyth", 
    "lat": "55.9800", 
    "lng": "-4.0600" 
  }, 
  {
    "name": "Ellon", 
    "lat": "57.3660", 
    "lng": "-2.0860" 
  }, 
  {
    "name": "Abram", 
    "lat": "53.5080", 
    "lng": "-2.5880" 
  }, 
  {
    "name": "Caernarfon", 
    "lat": "53.1400", 
    "lng": "-4.2700" 
  }, 
  {
    "name": "Ollerton", 
    "lat": "53.2000", 
    "lng": "-1.0200" 
  }, 
  {
    "name": "Choppington", 
    "lat": "55.1450", 
    "lng": "-1.6010" 
  }, 
  {
    "name": "Kippax", 
    "lat": "53.7669", 
    "lng": "-1.3705" 
  }, 
  {
    "name": "Tottington", 
    "lat": "53.6130", 
    "lng": "-2.3390" 
  }, 
  {
    "name": "Whitchurch", 
    "lat": "52.9690", 
    "lng": "-2.6820" 
  }, 
  {
    "name": "Dodworth", 
    "lat": "53.5417", 
    "lng": "-1.5214" 
  }, 
  {
    "name": "Nairn", 
    "lat": "57.5860", 
    "lng": "-3.8690" 
  }, 
  {
    "name": "Balderton", 
    "lat": "53.0549", 
    "lng": "-0.7727" 
  }, 
  {
    "name": "Shepperton", 
    "lat": "51.3900", 
    "lng": "-0.4600" 
  }, 
  {
    "name": "Pembroke Dock", 
    "lat": "51.6933", 
    "lng": "-4.9458" 
  }, 
  {
    "name": "Felpham", 
    "lat": "50.7905", 
    "lng": "-0.6539" 
  }, 
  {
    "name": "Cobham", 
    "lat": "51.3290", 
    "lng": "-0.4090" 
  }, 
  {
    "name": "Raynes Park", 
    "lat": "51.4033", 
    "lng": "-0.2321" 
  }, 
  {
    "name": "Rhosllanerchrugog", 
    "lat": "53.0110", 
    "lng": "-3.0520" 
  }, 
  {
    "name": "Lambeth", 
    "lat": "51.4903", 
    "lng": "-0.1193" 
  }, 
  {
    "name": "Bradwell", 
    "lat": "52.0500", 
    "lng": "-0.7870" 
  }, 
  {
    "name": "Glenfield", 
    "lat": "52.6491", 
    "lng": "-1.2062" 
  }, 
  {
    "name": "Immingham", 
    "lat": "53.6139", 
    "lng": "-0.2183" 
  }, 
  {
    "name": "Hockley", 
    "lat": "51.6014", 
    "lng": "0.6363" 
  }, 
  {
    "name": "Swanage", 
    "lat": "50.6080", 
    "lng": "-1.9600" 
  }, 
  {
    "name": "Boxley", 
    "lat": "51.3024", 
    "lng": "0.5429" 
  }, 
  {
    "name": "Matlock", 
    "lat": "53.1400", 
    "lng": "-1.5500" 
  }, 
  {
    "name": "Newburn", 
    "lat": "54.9830", 
    "lng": "-1.7430" 
  }, 
  {
    "name": "Skelton", 
    "lat": "54.5619", 
    "lng": "-0.9874" 
  }, 
  {
    "name": "Sherborne", 
    "lat": "50.9469", 
    "lng": "-2.5171" 
  }, 
  {
    "name": "Tadworth", 
    "lat": "51.2940", 
    "lng": "-0.2420" 
  }, 
  {
    "name": "Worsborough", 
    "lat": "53.5200", 
    "lng": "-1.4700" 
  }, 
  {
    "name": "London Colney", 
    "lat": "51.7260", 
    "lng": "-0.3000" 
  }, 
  {
    "name": "Emsworth", 
    "lat": "50.8490", 
    "lng": "-0.9380" 
  }, 
  {
    "name": "Llantwit Major", 
    "lat": "51.4062", 
    "lng": "-3.4750" 
  }, 
  {
    "name": "Bewdley", 
    "lat": "52.3752", 
    "lng": "-2.3162" 
  }, 
  {
    "name": "Killamarsh", 
    "lat": "53.3205", 
    "lng": "-1.3116" 
  }, 
  {
    "name": "South Normanton", 
    "lat": "53.1070", 
    "lng": "-1.3430" 
  }, 
  {
    "name": "Bradford-on-Avon", 
    "lat": "51.3470", 
    "lng": "-2.2510" 
  }, 
  {
    "name": "Horsell", 
    "lat": "51.3286", 
    "lng": "-0.5617" 
  }, 
  {
    "name": "Broadwater", 
    "lat": "50.8282", 
    "lng": "-0.3742" 
  }, 
  {
    "name": "Wilnecote", 
    "lat": "52.6081", 
    "lng": "-1.6677" 
  }, 
  {
    "name": "Kirkwall", 
    "lat": "58.9810", 
    "lng": "-2.9600" 
  }, 
  {
    "name": "Ledbury", 
    "lat": "52.0339", 
    "lng": "-2.4235" 
  }, 
  {
    "name": "Crigglestone", 
    "lat": "53.6440", 
    "lng": "-1.5226" 
  }, 
  {
    "name": "Towcester", 
    "lat": "52.1300", 
    "lng": "-0.9900" 
  }, 
  {
    "name": "Bowdon", 
    "lat": "53.3760", 
    "lng": "-2.3660" 
  }, 
  {
    "name": "Bude", 
    "lat": "50.8240", 
    "lng": "-4.5420" 
  }, 
  {
    "name": "Clay Cross", 
    "lat": "53.1637", 
    "lng": "-1.4128" 
  }, 
  {
    "name": "Launceston", 
    "lat": "50.6350", 
    "lng": "-4.3540" 
  }, 
  {
    "name": "Cullercoats", 
    "lat": "55.0330", 
    "lng": "-1.4330" 
  }, 
  {
    "name": "Cupar", 
    "lat": "56.3200", 
    "lng": "-3.0100" 
  }, 
  {
    "name": "Aberbargoed", 
    "lat": "51.6968", 
    "lng": "-3.2240" 
  }, 
  {
    "name": "Tiptree", 
    "lat": "51.8100", 
    "lng": "0.7500" 
  }, 
  {
    "name": "Burscough", 
    "lat": "53.5960", 
    "lng": "-2.8430" 
  }, 
  {
    "name": "Yaxley", 
    "lat": "52.5200", 
    "lng": "-0.2600" 
  }, 
  {
    "name": "Pencoed", 
    "lat": "51.5228", 
    "lng": "-3.5047" 
  }, 
  {
    "name": "Brandon", 
    "lat": "52.4474", 
    "lng": "0.6242" 
  }, 
  {
    "name": "Larbert", 
    "lat": "56.0229", 
    "lng": "-3.8260" 
  }, 
  {
    "name": "Bingham", 
    "lat": "52.9520", 
    "lng": "-0.9530" 
  }, 
  {
    "name": "Stevenston", 
    "lat": "55.6450", 
    "lng": "-4.7580" 
  }, 
  {
    "name": "Whitnash", 
    "lat": "52.2680", 
    "lng": "-1.5240" 
  }, 
  {
    "name": "Usworth", 
    "lat": "54.9400", 
    "lng": "-1.5500" 
  }, 
  {
    "name": "Portlethen", 
    "lat": "57.0610", 
    "lng": "-2.1300" 
  }, 
  {
    "name": "Dinnington", 
    "lat": "53.3667", 
    "lng": "-1.2000" 
  }, 
  {
    "name": "Frodsham", 
    "lat": "53.2950", 
    "lng": "-2.7250" 
  }, 
  {
    "name": "Shanklin", 
    "lat": "50.6310", 
    "lng": "-1.1734" 
  }, 
  {
    "name": "Armadale", 
    "lat": "55.8978", 
    "lng": "-3.7047" 
  }, 
  {
    "name": "Bonhill", 
    "lat": "55.9830", 
    "lng": "-4.5670" 
  }, 
  {
    "name": "Eaton Socon", 
    "lat": "52.2200", 
    "lng": "-0.2900" 
  }, 
  {
    "name": "Rye", 
    "lat": "50.9500", 
    "lng": "0.7300" 
  }, 
  {
    "name": "Queensferry", 
    "lat": "55.9900", 
    "lng": "-3.3980" 
  }, 
  {
    "name": "Barwell", 
    "lat": "52.5682", 
    "lng": "-1.3462" 
  }, 
  {
    "name": "Blairgowrie", 
    "lat": "56.5916", 
    "lng": "-3.3405" 
  }, 
  {
    "name": "Bovingdon", 
    "lat": "51.7231", 
    "lng": "-0.5367" 
  }, 
  {
    "name": "Dunblane", 
    "lat": "56.1838", 
    "lng": "-3.9674" 
  }, 
  {
    "name": "Ferryhill", 
    "lat": "54.6900", 
    "lng": "-1.5500" 
  }, 
  {
    "name": "Hayle", 
    "lat": "50.1830", 
    "lng": "-5.4160" 
  }, 
  {
    "name": "Glastonbury", 
    "lat": "51.1485", 
    "lng": "-2.7140" 
  }, 
  {
    "name": "Felling", 
    "lat": "54.9500", 
    "lng": "-1.5640" 
  }, 
  {
    "name": "Great Cornard", 
    "lat": "52.0245", 
    "lng": "0.7497" 
  }, 
  {
    "name": "Caister-on-Sea", 
    "lat": "52.6510", 
    "lng": "1.7330" 
  }, 
  {
    "name": "Irthlingborough", 
    "lat": "52.3240", 
    "lng": "-0.6140" 
  }, 
  {
    "name": "Sandiacre", 
    "lat": "52.9230", 
    "lng": "-1.2910" 
  }, 
  {
    "name": "Holywell", 
    "lat": "53.2740", 
    "lng": "-3.2230" 
  }, 
  {
    "name": "Partick", 
    "lat": "55.8699", 
    "lng": "-4.3125" 
  }, 
  {
    "name": "Ifield", 
    "lat": "51.1234", 
    "lng": "-0.2073" 
  }, 
  {
    "name": "Leven", 
    "lat": "56.1950", 
    "lng": "-2.9942" 
  }, 
  {
    "name": "Rhymney", 
    "lat": "51.7590", 
    "lng": "-3.2830" 
  }, 
  {
    "name": "Kirk of Shotts", 
    "lat": "55.8230", 
    "lng": "-3.8040" 
  }, 
  {
    "name": "Great Dunmow", 
    "lat": "51.8730", 
    "lng": "0.3617" 
  }, 
  {
    "name": "Brimington", 
    "lat": "53.2580", 
    "lng": "-1.3905" 
  }, 
  {
    "name": "Cherry Hinton", 
    "lat": "52.1849", 
    "lng": "0.1760" 
  }, 
  {
    "name": "Cowley", 
    "lat": "51.5280", 
    "lng": "-0.4810" 
  }, 
  {
    "name": "Lydney", 
    "lat": "51.7286", 
    "lng": "-2.5285" 
  }, 
  {
    "name": "Cockermouth", 
    "lat": "54.6613", 
    "lng": "-3.3620" 
  }, 
  {
    "name": "Littleport", 
    "lat": "52.4568", 
    "lng": "0.3046" 
  },